{"brand":"LSL","slug":"lsl","outcode_count":306,"office_count":362,"metrics":{"BB11":{"office_count":2,"total_reviews":402,"avg_rep_score":77.5,"avg_rating":4.78,"avg_reply_rate":95.8,"rag_breakdown":{"GREEN":2},"offices":[{"name":"Entwistle Green (BB11)","postcode":"BB11 1HH","lat":53.7884,"lng":-2.24294,"rep_score":73.0,"rating":4.8,"total_reviews":98,"reply_rate":100.0,"rag":"GREEN","office_id":249878},{"name":"Reeds Rains, Burnley","postcode":"BB11 1HH","lat":53.7884,"lng":-2.24289,"rep_score":82.0,"rating":4.76,"total_reviews":304,"reply_rate":91.66666666666666,"rag":"GREEN","office_id":791}]},"BL5":{"office_count":1,"total_reviews":160,"avg_rep_score":72.0,"avg_rating":4.47,"avg_reply_rate":100.0,"rag_breakdown":{"GREEN":1},"offices":[{"name":"Entwistle Green (BL5)","postcode":"BL5 3AJ","lat":53.548,"lng":-2.52255,"rep_score":72.0,"rating":4.47,"total_reviews":160,"reply_rate":100.0,"rag":"GREEN","office_id":246245}]},"BL9":{"office_count":3,"total_reviews":783,"avg_rep_score":66.0,"avg_rating":4.71,"avg_reply_rate":91.7,"rag_breakdown":{"GREEN":2,"RED":1},"offices":[{"name":"Entwistle Green (BL9)","postcode":"BL9 0NT","lat":53.5936,"lng":-2.29663,"rep_score":76.0,"rating":4.81,"total_reviews":351,"reply_rate":100.0,"rag":"GREEN","office_id":249879},{"name":"Reeds Rains (BL9)","postcode":"BL9 0AH","lat":53.593427,"lng":-2.29731,"rep_score":41.0,"rating":4.6,"total_reviews":12,"reply_rate":null,"rag":"RED","office_id":1302},{"name":"Your Move (BL9)","postcode":"BL9 0NT","lat":53.5936,"lng":-2.29663,"rep_score":81.0,"rating":4.71,"total_reviews":420,"reply_rate":83.33333333333334,"rag":"GREEN","office_id":1311}]},"FY1":{"office_count":1,"total_reviews":486,"avg_rep_score":63.0,"avg_rating":3.52,"avg_reply_rate":100.0,"rag_breakdown":{"AMBER":1},"offices":[{"name":"Entwistle Green (FY1)","postcode":"FY1 3AQ","lat":53.8192,"lng":-3.04984,"rep_score":63.0,"rating":3.52,"total_reviews":486,"reply_rate":100.0,"rag":"AMBER","office_id":249880}]},"FY8":{"office_count":1,"total_reviews":388,"avg_rep_score":56.0,"avg_rating":3.39,"avg_reply_rate":100.0,"rag_breakdown":{"AMBER":1},"offices":[{"name":"Entwistle Green (FY8)","postcode":"FY8 1SB","lat":53.7517,"lng":-3.0316,"rep_score":56.0,"rating":3.39,"total_reviews":388,"reply_rate":100.0,"rag":"AMBER","office_id":249881}]},"LA4":{"office_count":1,"total_reviews":316,"avg_rep_score":55.0,"avg_rating":3.0,"avg_reply_rate":100.0,"rag_breakdown":{"AMBER":1},"offices":[{"name":"Entwistle Green (LA4)","postcode":"LA4 4AE","lat":54.0721,"lng":-2.86781,"rep_score":55.0,"rating":3.0,"total_reviews":316,"reply_rate":100.0,"rag":"AMBER","office_id":249886}]},"PR8":{"office_count":1,"total_reviews":1,"avg_rep_score":null,"avg_rating":1.0,"avg_reply_rate":null,"rag_breakdown":{"RED":1},"offices":[{"name":"Entwistle Green (PR8)","postcode":"PR8 1NH","lat":53.648652,"lng":-3.005693,"rep_score":null,"rating":1.0,"total_reviews":1,"reply_rate":null,"rag":"RED","office_id":223888}]},"WA1":{"office_count":1,"total_reviews":67,"avg_rep_score":67.0,"avg_rating":5.0,"avg_reply_rate":null,"rag_breakdown":{"AMBER":1},"offices":[{"name":"Entwistle Green (WA1)","postcode":"WA1 1SL","lat":53.3886,"lng":-2.59712,"rep_score":67.0,"rating":5.0,"total_reviews":67,"reply_rate":null,"rag":"AMBER","office_id":249887}]},"WA10":{"office_count":2,"total_reviews":972,"avg_rep_score":72.5,"avg_rating":4.19,"avg_reply_rate":100.0,"rag_breakdown":{"AMBER":1,"GREEN":1},"offices":[{"name":"Entwistle Green (WA10)","postcode":"WA10 1QX","lat":53.453,"lng":-2.73601,"rep_score":63.0,"rating":3.56,"total_reviews":462,"reply_rate":100.0,"rag":"AMBER","office_id":249888},{"name":"Reeds Rains, St Helens","postcode":"WA10 1RX","lat":53.453175,"lng":-2.736857,"rep_score":82.0,"rating":4.82,"total_reviews":510,"reply_rate":100.0,"rag":"GREEN","office_id":17515}]},"L18":{"office_count":1,"total_reviews":802,"avg_rep_score":58.0,"avg_rating":2.45,"avg_reply_rate":88.9,"rag_breakdown":{"AMBER":1},"offices":[{"name":"Entwistle Green Allerton Sales","postcode":"L18 1LN","lat":53.3884,"lng":-2.91358,"rep_score":58.0,"rating":2.45,"total_reviews":802,"reply_rate":88.88888888888889,"rag":"AMBER","office_id":257919}]},"BB1":{"office_count":2,"total_reviews":694,"avg_rep_score":75.0,"avg_rating":3.46,"avg_reply_rate":89.5,"rag_breakdown":{"GREEN":1,"RED":1},"offices":[{"name":"Entwistle Green Blackburn Sales","postcode":"BB1 7EB","lat":53.7505,"lng":-2.48589,"rep_score":76.0,"rating":2.44,"total_reviews":541,"reply_rate":89.47368421052632,"rag":"GREEN","office_id":259115},{"name":"Your Move, Blackburn","postcode":"BB1 7DT","lat":53.750216,"lng":-2.484942,"rep_score":74.0,"rating":4.49,"total_reviews":153,"reply_rate":null,"rag":"RED","office_id":781}]},"BL1":{"office_count":2,"total_reviews":816,"avg_rep_score":56.0,"avg_rating":3.65,"avg_reply_rate":83.3,"rag_breakdown":{"GREEN":1,"RED":1},"offices":[{"name":"Entwistle Green Bolton Sales","postcode":"BL1 1BG","lat":53.5798,"lng":-2.42969,"rep_score":76.0,"rating":3.6,"total_reviews":800,"reply_rate":83.33333333333334,"rag":"GREEN","office_id":257848},{"name":"Your Move (BL1)","postcode":"BL1 1QQ","lat":53.5773,"lng":-2.42638,"rep_score":36.0,"rating":3.69,"total_reviews":16,"reply_rate":null,"rag":"RED","office_id":1252}]},"BB8":{"office_count":2,"total_reviews":2408,"avg_rep_score":71.5,"avg_rating":3.4,"avg_reply_rate":55.6,"rag_breakdown":{"GREEN":1,"AMBER":1},"offices":[{"name":"Entwistle Green Colne Sales","postcode":"BB8 0LG","lat":53.8571,"lng":-2.16962,"rep_score":75.0,"rating":2.44,"total_reviews":464,"reply_rate":80.0,"rag":"GREEN","office_id":259418},{"name":"Reeds Rains, Colne","postcode":"BB8 0RY","lat":53.856043,"lng":-2.172987,"rep_score":68.0,"rating":4.36,"total_reviews":1944,"reply_rate":31.25,"rag":"AMBER","office_id":861}]},"L23":{"office_count":1,"total_reviews":866,"avg_rep_score":58.0,"avg_rating":3.48,"avg_reply_rate":93.9,"rag_breakdown":{"AMBER":1},"offices":[{"name":"Entwistle Green Crosby Sales","postcode":"L23 5RH","lat":53.4911,"lng":-3.02596,"rep_score":58.0,"rating":3.48,"total_reviews":866,"reply_rate":93.93939393939394,"rag":"AMBER","office_id":257920}]},"L37":{"office_count":1,"total_reviews":836,"avg_rep_score":58.0,"avg_rating":3.36,"avg_reply_rate":null,"rag_breakdown":{"RED":1},"offices":[{"name":"Entwistle Green Formby","postcode":"L37 4DL","lat":53.5571,"lng":-3.06143,"rep_score":58.0,"rating":3.36,"total_reviews":836,"reply_rate":null,"rag":"RED","office_id":257921}]},"PR2":{"office_count":1,"total_reviews":333,"avg_rep_score":25.0,"avg_rating":2.79,"avg_reply_rate":null,"rag_breakdown":{"RED":1},"offices":[{"name":"Entwistle Green Fulwood","postcode":"PR2 9XJ","lat":53.7904,"lng":-2.71372,"rep_score":25.0,"rating":2.79,"total_reviews":333,"reply_rate":null,"rag":"RED","office_id":259912}]},"LA1":{"office_count":1,"total_reviews":1132,"avg_rep_score":76.0,"avg_rating":4.61,"avg_reply_rate":100.0,"rag_breakdown":{"GREEN":1},"offices":[{"name":"Entwistle Green Lettings Lancaster","postcode":"LA1 1JG","lat":54.048497,"lng":-2.802413,"rep_score":76.0,"rating":4.61,"total_reviews":1132,"reply_rate":100.0,"rag":"GREEN","office_id":223895}]},"PR25":{"office_count":2,"total_reviews":504,"avg_rep_score":68.5,"avg_rating":3.95,"avg_reply_rate":null,"rag_breakdown":{"RED":2},"offices":[{"name":"Entwistle Green Leyland Sales","postcode":"PR25 2SB","lat":53.695,"lng":-2.69523,"rep_score":58.0,"rating":3.27,"total_reviews":381,"reply_rate":null,"rag":"RED","office_id":259706},{"name":"Reeds Rains, Leyland","postcode":"PR25 2SD","lat":53.694724,"lng":-2.694757,"rep_score":79.0,"rating":4.62,"total_reviews":123,"reply_rate":null,"rag":"RED","office_id":12545}]},"L2":{"office_count":2,"total_reviews":2822,"avg_rep_score":71.0,"avg_rating":3.2,"avg_reply_rate":79.8,"rag_breakdown":{"GREEN":1,"AMBER":1},"offices":[{"name":"Entwistle Green Liverpool City Sales","postcode":"L2 2SH","lat":53.407594,"lng":-2.990294,"rep_score":76.0,"rating":2.45,"total_reviews":557,"reply_rate":81.81818181818183,"rag":"GREEN","office_id":257922},{"name":"Reeds Rains, Liverpool","postcode":"L2 9RP","lat":53.406087,"lng":-2.988875,"rep_score":66.0,"rating":3.95,"total_reviews":2265,"reply_rate":77.77777777777779,"rag":"AMBER","office_id":8115}]},"L31":{"office_count":1,"total_reviews":704,"avg_rep_score":56.0,"avg_rating":2.43,"avg_reply_rate":100.0,"rag_breakdown":{"AMBER":1},"offices":[{"name":"Entwistle Green Maghull Sales","postcode":"L31 0AE","lat":53.5167,"lng":-2.94387,"rep_score":56.0,"rating":2.43,"total_reviews":704,"reply_rate":100.0,"rag":"AMBER","office_id":257923}]},"L13":{"office_count":1,"total_reviews":308,"avg_rep_score":25.0,"avg_rating":2.68,"avg_reply_rate":100.0,"rag_breakdown":{"RED":1},"offices":[{"name":"Entwistle Green Old Swan Sales","postcode":"L13 5SD","lat":53.4125,"lng":-2.91169,"rep_score":25.0,"rating":2.68,"total_reviews":308,"reply_rate":100.0,"rag":"RED","office_id":257924}]},"FY5":{"office_count":1,"total_reviews":630,"avg_rep_score":25.0,"avg_rating":2.92,"avg_reply_rate":null,"rag_breakdown":{"RED":1},"offices":[{"name":"Entwistle Green Thornton-Cleveleys Sales","postcode":"FY5 3LG","lat":53.8766,"lng":-3.03923,"rep_score":25.0,"rating":2.92,"total_reviews":630,"reply_rate":null,"rag":"RED","office_id":259799}]},"L9":{"office_count":1,"total_reviews":246,"avg_rep_score":null,"avg_rating":2.44,"avg_reply_rate":null,"rag_breakdown":{"RED":1},"offices":[{"name":"Entwistle Green Walton Vale","postcode":"L9 4RF","lat":53.463,"lng":-2.96016,"rep_score":null,"rating":2.44,"total_reviews":246,"reply_rate":null,"rag":"RED","office_id":257925}]},"BL0":{"office_count":1,"total_reviews":1837,"avg_rep_score":60.0,"avg_rating":3.64,"avg_reply_rate":40.0,"rag_breakdown":{"AMBER":1},"offices":[{"name":"Reeds Rains (BL0)","postcode":"BL0 9RN","lat":53.6325,"lng":-2.33587,"rep_score":60.0,"rating":3.64,"total_reviews":1837,"reply_rate":40.0,"rag":"AMBER","office_id":252880}]},"BT20":{"office_count":1,"total_reviews":2151,"avg_rep_score":73.0,"avg_rating":3.72,"avg_reply_rate":50.0,"rag_breakdown":{"GREEN":1},"offices":[{"name":"Reeds Rains (Bangor)","postcode":"BT20 5AG","lat":54.662262,"lng":-5.668127,"rep_score":73.0,"rating":3.72,"total_reviews":2151,"reply_rate":50.0,"rag":"GREEN","office_id":254945}]},"LL18":{"office_count":2,"total_reviews":2337,"avg_rep_score":68.5,"avg_rating":4.24,"avg_reply_rate":34.8,"rag_breakdown":{"AMBER":1,"RED":1},"offices":[{"name":"Reeds Rains (LL18)","postcode":"LL18 1UB","lat":53.32,"lng":-3.48939,"rep_score":62.0,"rating":3.77,"total_reviews":2071,"reply_rate":34.78260869565217,"rag":"AMBER","office_id":252896},{"name":"Reeds Rains Rhyl","postcode":"LL18 1EU","lat":53.3202,"lng":-3.48965,"rep_score":75.0,"rating":4.7,"total_reviews":266,"reply_rate":null,"rag":"RED","office_id":243706}]},"LS27":{"office_count":2,"total_reviews":592,"avg_rep_score":59.0,"avg_rating":4.81,"avg_reply_rate":50.0,"rag_breakdown":{"RED":1,"GREEN":1},"offices":[{"name":"Reeds Rains (LS27)","postcode":"LS27 9EB","lat":53.743818,"lng":-1.600437,"rep_score":42.0,"rating":5.0,"total_reviews":1,"reply_rate":null,"rag":"RED","office_id":8833},{"name":"Reeds Rains, Morley ","postcode":"LS27 9BG","lat":53.745324,"lng":-1.602212,"rep_score":76.0,"rating":4.63,"total_reviews":591,"reply_rate":50.0,"rag":"GREEN","office_id":8829}]},"SK8":{"office_count":2,"total_reviews":2178,"avg_rep_score":60.5,"avg_rating":4.77,"avg_reply_rate":50.0,"rag_breakdown":{"RED":1,"GREEN":1},"offices":[{"name":"Reeds Rains (SK8)","postcode":"SK8 3QD","lat":53.370365,"lng":-2.234689,"rep_score":42.0,"rating":5.0,"total_reviews":1,"reply_rate":null,"rag":"RED","office_id":14248},{"name":"Reeds Rains, Cheadle","postcode":"SK8 1PU","lat":53.393749,"lng":-2.218442,"rep_score":79.0,"rating":4.54,"total_reviews":2177,"reply_rate":50.0,"rag":"GREEN","office_id":21445}]},"WA8":{"office_count":2,"total_reviews":2470,"avg_rep_score":68.0,"avg_rating":4.25,"avg_reply_rate":83.3,"rag_breakdown":{"AMBER":1,"GREEN":1},"offices":[{"name":"Reeds Rains (WA8)","postcode":"WA8 6JT","lat":53.3697,"lng":-2.72465,"rep_score":61.0,"rating":3.78,"total_reviews":2174,"reply_rate":66.66666666666666,"rag":"AMBER","office_id":252902},{"name":"Reeds Rains, Widnes","postcode":"WA8 6JU","lat":53.373115,"lng":-2.741384,"rep_score":75.0,"rating":4.73,"total_reviews":296,"reply_rate":100.0,"rag":"GREEN","office_id":243719}]},"B25":{"office_count":1,"total_reviews":2041,"avg_rep_score":70.0,"avg_rating":3.69,"avg_reply_rate":40.0,"rag_breakdown":{"AMBER":1},"offices":[{"name":"Reeds Rains Birmingham","postcode":"B25 8UT","lat":52.4681,"lng":-1.80774,"rep_score":70.0,"rating":3.69,"total_reviews":2041,"reply_rate":40.0,"rag":"AMBER","office_id":257751}]},"YO15":{"office_count":1,"total_reviews":8,"avg_rep_score":36.0,"avg_rating":4.0,"avg_reply_rate":null,"rag_breakdown":{"RED":1},"offices":[{"name":"Reeds Rains Bridlington","postcode":"YO15 2AR","lat":54.085,"lng":-0.195762,"rep_score":36.0,"rating":4.0,"total_reviews":8,"reply_rate":null,"rag":"RED","office_id":243696}]},"SE6":{"office_count":1,"total_reviews":140,"avg_rep_score":74.0,"avg_rating":4.59,"avg_reply_rate":25.0,"rag_breakdown":{"AMBER":1},"offices":[{"name":"Reeds Rains Catford","postcode":"SE6 4AA","lat":51.4464,"lng":-0.018444,"rep_score":74.0,"rating":4.59,"total_reviews":140,"reply_rate":25.0,"rag":"AMBER","office_id":243700}]},"CV1":{"office_count":2,"total_reviews":2620,"avg_rep_score":69.0,"avg_rating":4.33,"avg_reply_rate":75.0,"rag_breakdown":{"RED":1,"GREEN":1},"offices":[{"name":"Reeds Rains Coventry","postcode":"CV1 1EX","lat":52.4052,"lng":-1.5137,"rep_score":62.0,"rating":3.81,"total_reviews":2202,"reply_rate":null,"rag":"RED","office_id":258345},{"name":"Reeds Rains, Coventry","postcode":"CV1 1EJ","lat":52.404922,"lng":-1.514096,"rep_score":76.0,"rating":4.85,"total_reviews":418,"reply_rate":75.0,"rag":"GREEN","office_id":243986}]},"DE1":{"office_count":1,"total_reviews":1853,"avg_rep_score":60.0,"avg_rating":3.69,"avg_reply_rate":null,"rag_breakdown":{"RED":1},"offices":[{"name":"Reeds Rains Derby","postcode":"DE1 3FJ","lat":52.9239,"lng":-1.47717,"rep_score":60.0,"rating":3.69,"total_reviews":1853,"reply_rate":null,"rag":"RED","office_id":243695}]},"M1":{"office_count":1,"total_reviews":4342,"avg_rep_score":62.0,"avg_rating":3.68,"avg_reply_rate":50.0,"rag_breakdown":{"AMBER":1},"offices":[{"name":"Reeds Rains Manchester","postcode":"M1 5ND","lat":53.4741,"lng":-2.24516,"rep_score":62.0,"rating":3.68,"total_reviews":4342,"reply_rate":50.0,"rag":"AMBER","office_id":257868}]},"E13":{"office_count":1,"total_reviews":223,"avg_rep_score":75.0,"avg_rating":4.54,"avg_reply_rate":66.7,"rag_breakdown":{"GREEN":1},"offices":[{"name":"Reeds Rains Plaistow","postcode":"E13 8HR","lat":51.5201,"lng":0.018454,"rep_score":75.0,"rating":4.54,"total_reviews":223,"reply_rate":66.66666666666666,"rag":"GREEN","office_id":243704}]},"L34":{"office_count":2,"total_reviews":306,"avg_rep_score":55.5,"avg_rating":4.13,"avg_reply_rate":100.0,"rag_breakdown":{"GREEN":1,"RED":1},"offices":[{"name":"Reeds Rains Prescot","postcode":"L34 5QE","lat":53.4287,"lng":-2.80486,"rep_score":75.0,"rating":4.67,"total_reviews":289,"reply_rate":100.0,"rag":"GREEN","office_id":243705},{"name":"Your Move (L34)","postcode":"L34 5QE","lat":53.428692,"lng":-2.804791,"rep_score":36.0,"rating":3.59,"total_reviews":17,"reply_rate":null,"rag":"RED","office_id":8164}]},"S1":{"office_count":1,"total_reviews":2370,"avg_rep_score":76.0,"avg_rating":3.66,"avg_reply_rate":64.9,"rag_breakdown":{"GREEN":1},"offices":[{"name":"Reeds Rains Sheffield City Living","postcode":"S1 2EG","lat":53.3832,"lng":-1.47116,"rep_score":76.0,"rating":3.66,"total_reviews":2370,"reply_rate":64.86486486486487,"rag":"GREEN","office_id":258212}]},"TS18":{"office_count":2,"total_reviews":2263,"avg_rep_score":68.5,"avg_rating":4.3,"avg_reply_rate":69.0,"rag_breakdown":{"AMBER":1,"GREEN":1},"offices":[{"name":"Reeds Rains Stockton-On-Tees","postcode":"TS18 1SX","lat":54.565,"lng":-1.31189,"rep_score":62.0,"rating":3.67,"total_reviews":1960,"reply_rate":38.095238095238095,"rag":"AMBER","office_id":259486},{"name":"Reeds Rains, Stockton on Tees","postcode":"TS18 5EQ","lat":54.555151,"lng":-1.34066,"rep_score":75.0,"rating":4.93,"total_reviews":303,"reply_rate":100.0,"rag":"GREEN","office_id":243987}]},"YO26":{"office_count":1,"total_reviews":206,"avg_rep_score":81.0,"avg_rating":4.86,"avg_reply_rate":100.0,"rag_breakdown":{"GREEN":1},"offices":[{"name":"Reeds Rains, Acomb","postcode":"YO26 5HT","lat":53.957274,"lng":-1.12351,"rep_score":81.0,"rating":4.86,"total_reviews":206,"reply_rate":100.0,"rag":"GREEN","office_id":18207}]},"OL6":{"office_count":1,"total_reviews":4343,"avg_rep_score":69.0,"avg_rating":4.62,"avg_reply_rate":null,"rag_breakdown":{"RED":1},"offices":[{"name":"Reeds Rains, Ashton Under Lyne","postcode":"OL6 6BY","lat":53.4894,"lng":-2.09126,"rep_score":69.0,"rating":4.62,"total_reviews":4343,"reply_rate":null,"rag":"RED","office_id":243723}]},"BT4":{"office_count":1,"total_reviews":4881,"avg_rep_score":75.0,"avg_rating":4.87,"avg_reply_rate":31.4,"rag_breakdown":{"AMBER":1},"offices":[{"name":"Reeds Rains, Ballyhackamore NI","postcode":"BT4 3EX","lat":54.595355,"lng":-5.869097,"rep_score":75.0,"rating":4.87,"total_reviews":4881,"reply_rate":31.372549019607842,"rag":"AMBER","office_id":236680}]},"PR5":{"office_count":1,"total_reviews":201,"avg_rep_score":72.0,"avg_rating":4.82,"avg_reply_rate":28.6,"rag_breakdown":{"AMBER":1},"offices":[{"name":"Reeds Rains, Bamber Bridge","postcode":"PR5 6LA","lat":53.730581,"lng":-2.661224,"rep_score":72.0,"rating":4.82,"total_reviews":201,"reply_rate":28.57142857142857,"rag":"AMBER","office_id":225500}]},"CV12":{"office_count":2,"total_reviews":5122,"avg_rep_score":70.0,"avg_rating":4.67,"avg_reply_rate":66.7,"rag_breakdown":{"AMBER":1,"GREEN":1},"offices":[{"name":"Reeds Rains, Bedworth","postcode":"CV12 8JQ","lat":52.4795,"lng":-1.46976,"rep_score":68.0,"rating":4.88,"total_reviews":4770,"reply_rate":33.33333333333333,"rag":"AMBER","office_id":243725},{"name":"Your Move Bedworth","postcode":"CV12 8HS","lat":52.479341,"lng":-1.471161,"rep_score":72.0,"rating":4.46,"total_reviews":352,"reply_rate":100.0,"rag":"GREEN","office_id":3628}]},"FY4":{"office_count":1,"total_reviews":248,"avg_rep_score":72.0,"avg_rating":4.27,"avg_reply_rate":100.0,"rag_breakdown":{"GREEN":1},"offices":[{"name":"Reeds Rains, Blackpool","postcode":"FY4 2JA","lat":53.785708,"lng":-3.0457,"rep_score":72.0,"rating":4.27,"total_reviews":248,"reply_rate":100.0,"rag":"GREEN","office_id":5753}]},"BT38":{"office_count":1,"total_reviews":4530,"avg_rep_score":75.0,"avg_rating":4.92,"avg_reply_rate":26.3,"rag_breakdown":{"AMBER":1},"offices":[{"name":"Reeds Rains, Carrickfergus, NI","postcode":"BT38 7AF","lat":54.715278,"lng":-5.806272,"rep_score":75.0,"rating":4.92,"total_reviews":4530,"reply_rate":26.31578947368421,"rag":"AMBER","office_id":2154}]},"WF10":{"office_count":1,"total_reviews":2458,"avg_rep_score":81.0,"avg_rating":4.65,"avg_reply_rate":86.7,"rag_breakdown":{"GREEN":1},"offices":[{"name":"Reeds Rains, Castleford","postcode":"WF10 1AE","lat":53.726718,"lng":-1.352612,"rep_score":81.0,"rating":4.65,"total_reviews":2458,"reply_rate":86.66666666666667,"rag":"GREEN","office_id":17790}]},"NE5":{"office_count":2,"total_reviews":375,"avg_rep_score":75.0,"avg_rating":4.71,"avg_reply_rate":100.0,"rag_breakdown":{"GREEN":2},"offices":[{"name":"Reeds Rains, Chapel House","postcode":"NE5 1DT","lat":54.9953,"lng":-1.71714,"rep_score":75.0,"rating":4.76,"total_reviews":118,"reply_rate":100.0,"rag":"GREEN","office_id":243727},{"name":"YOUR MOVE Chris Stonock","postcode":"NE5 5AD","lat":54.988418,"lng":-1.709044,"rep_score":75.0,"rating":4.66,"total_reviews":257,"reply_rate":100.0,"rag":"GREEN","office_id":254463}]},"CH1":{"office_count":1,"total_reviews":182,"avg_rep_score":71.0,"avg_rating":4.43,"avg_reply_rate":null,"rag_breakdown":{"RED":1},"offices":[{"name":"Reeds Rains, Chester","postcode":"CH1 2LB","lat":53.1899,"lng":-2.89344,"rep_score":71.0,"rating":4.43,"total_reviews":182,"reply_rate":null,"rag":"RED","office_id":243728}]},"DH3":{"office_count":2,"total_reviews":5034,"avg_rep_score":76.0,"avg_rating":4.83,"avg_reply_rate":100.0,"rag_breakdown":{"GREEN":2},"offices":[{"name":"Reeds Rains, Chester le Street","postcode":"DH3 3QY","lat":54.8586,"lng":-1.57363,"rep_score":76.0,"rating":4.82,"total_reviews":4487,"reply_rate":100.0,"rag":"GREEN","office_id":243729},{"name":"Your Move Chester Le Street","postcode":"DH3 3BH","lat":54.856945,"lng":-1.57419,"rep_score":76.0,"rating":4.85,"total_reviews":547,"reply_rate":100.0,"rag":"GREEN","office_id":4218}]},"S40":{"office_count":2,"total_reviews":235,"avg_rep_score":61.0,"avg_rating":4.78,"avg_reply_rate":100.0,"rag_breakdown":{"GREEN":1,"RED":1},"offices":[{"name":"Reeds Rains, Chesterfield","postcode":"S40 1TX","lat":53.236997,"lng":-1.429152,"rep_score":86.0,"rating":4.56,"total_reviews":234,"reply_rate":100.0,"rag":"GREEN","office_id":13315},{"name":"Your Move (S40)","postcode":"S40 1TX","lat":53.236997,"lng":-1.429152,"rep_score":36.0,"rating":5.0,"total_reviews":1,"reply_rate":null,"rag":"RED","office_id":13318}]},"PR7":{"office_count":1,"total_reviews":2209,"avg_rep_score":72.0,"avg_rating":4.54,"avg_reply_rate":46.2,"rag_breakdown":{"AMBER":1},"offices":[{"name":"Reeds Rains, Chorley","postcode":"PR7 1DW","lat":53.6537,"lng":-2.63079,"rep_score":72.0,"rating":4.54,"total_reviews":2209,"reply_rate":46.15384615384615,"rag":"AMBER","office_id":243730}]},"BD19":{"office_count":1,"total_reviews":213,"avg_rep_score":75.0,"avg_rating":4.51,"avg_reply_rate":90.0,"rag_breakdown":{"GREEN":1},"offices":[{"name":"Reeds Rains, Cleckheaton","postcode":"BD19 3RU","lat":53.723436,"lng":-1.71217,"rep_score":75.0,"rating":4.51,"total_reviews":213,"reply_rate":90.0,"rag":"GREEN","office_id":236245}]},"BS21":{"office_count":1,"total_reviews":2369,"avg_rep_score":76.0,"avg_rating":4.78,"avg_reply_rate":43.5,"rag_breakdown":{"AMBER":1},"offices":[{"name":"Reeds Rains, Clevedon","postcode":"BS21 6NB","lat":51.4366,"lng":-2.85209,"rep_score":76.0,"rating":4.78,"total_reviews":2369,"reply_rate":43.47826086956522,"rag":"AMBER","office_id":243731}]},"CW12":{"office_count":1,"total_reviews":2463,"avg_rep_score":75.0,"avg_rating":4.76,"avg_reply_rate":80.0,"rag_breakdown":{"GREEN":1},"offices":[{"name":"Reeds Rains, Congleton","postcode":"CW12 1BD","lat":53.162687,"lng":-2.211358,"rep_score":75.0,"rating":4.76,"total_reviews":2463,"reply_rate":80.0,"rag":"GREEN","office_id":3779}]},"DH8":{"office_count":2,"total_reviews":2885,"avg_rep_score":75.5,"avg_rating":4.81,"avg_reply_rate":68.2,"rag_breakdown":{"AMBER":1,"GREEN":1},"offices":[{"name":"Reeds Rains, Consett","postcode":"DH8 5BJ","lat":54.8523,"lng":-1.83269,"rep_score":75.0,"rating":4.74,"total_reviews":2252,"reply_rate":36.36363636363637,"rag":"AMBER","office_id":243733},{"name":"YOUR MOVE Chris Stonock","postcode":"DH8 5AY","lat":54.8534,"lng":-1.83412,"rep_score":76.0,"rating":4.88,"total_reviews":633,"reply_rate":100.0,"rag":"GREEN","office_id":254458}]},"LS15":{"office_count":2,"total_reviews":312,"avg_rep_score":81.0,"avg_rating":4.62,"avg_reply_rate":100.0,"rag_breakdown":{"GREEN":2},"offices":[{"name":"Reeds Rains, Crossgates","postcode":"LS15 8DX","lat":53.807201,"lng":-1.450397,"rep_score":77.0,"rating":4.36,"total_reviews":170,"reply_rate":100.0,"rag":"GREEN","office_id":8753},{"name":"Your Move (LS15)","postcode":"LS15 8DX","lat":53.807201,"lng":-1.450397,"rep_score":85.0,"rating":4.88,"total_reviews":142,"reply_rate":100.0,"rag":"GREEN","office_id":8754}]},"DA1":{"office_count":2,"total_reviews":4260,"avg_rep_score":75.5,"avg_rating":4.73,"avg_reply_rate":40.9,"rag_breakdown":{"AMBER":1,"RED":1},"offices":[{"name":"Reeds Rains, Dartford","postcode":"DA1 1BX","lat":51.4452,"lng":0.216407,"rep_score":76.0,"rating":4.81,"total_reviews":3894,"reply_rate":40.909090909090914,"rag":"AMBER","office_id":3841},{"name":"Your Move Dartford","postcode":"DA1 2DL","lat":51.4446,"lng":0.215686,"rep_score":75.0,"rating":4.65,"total_reviews":366,"reply_rate":null,"rag":"RED","office_id":224919}]},"M20":{"office_count":1,"total_reviews":227,"avg_rep_score":81.0,"avg_rating":4.52,"avg_reply_rate":100.0,"rag_breakdown":{"GREEN":1},"offices":[{"name":"Reeds Rains, Didsbury","postcode":"M20 6RE","lat":53.417023,"lng":-2.23123,"rep_score":81.0,"rating":4.52,"total_reviews":227,"reply_rate":100.0,"rag":"GREEN","office_id":9040}]},"S25":{"office_count":2,"total_reviews":144,"avg_rep_score":61.5,"avg_rating":4.62,"avg_reply_rate":85.7,"rag_breakdown":{"GREEN":1,"RED":1},"offices":[{"name":"Reeds Rains, Dinnington","postcode":"S25 2PS","lat":53.369322,"lng":-1.210378,"rep_score":74.0,"rating":4.6,"total_reviews":128,"reply_rate":85.71428571428571,"rag":"GREEN","office_id":227823},{"name":"Your Move (S25)","postcode":"S25 2PN","lat":53.369044,"lng":-1.210128,"rep_score":49.0,"rating":4.63,"total_reviews":16,"reply_rate":null,"rag":"RED","office_id":13273}]},"DN1":{"office_count":2,"total_reviews":2756,"avg_rep_score":72.5,"avg_rating":4.4,"avg_reply_rate":68.5,"rag_breakdown":{"AMBER":1,"GREEN":1},"offices":[{"name":"Reeds Rains, Doncaster","postcode":"DN1 1BL","lat":53.522589,"lng":-1.134693,"rep_score":64.0,"rating":4.19,"total_reviews":1994,"reply_rate":40.0,"rag":"AMBER","office_id":4342},{"name":"Your Move Doncaster","postcode":"DN1 3NE","lat":53.522421,"lng":-1.131393,"rep_score":81.0,"rating":4.61,"total_reviews":762,"reply_rate":97.05882352941177,"rag":"GREEN","office_id":4352}]},"DH1":{"office_count":2,"total_reviews":2799,"avg_rep_score":76.0,"avg_rating":4.71,"avg_reply_rate":73.3,"rag_breakdown":{"AMBER":1,"GREEN":1},"offices":[{"name":"Reeds Rains, Durham City","postcode":"DH1 3AQ","lat":54.775249,"lng":-1.572234,"rep_score":76.0,"rating":4.53,"total_reviews":2388,"reply_rate":46.666666666666664,"rag":"AMBER","office_id":227371},{"name":"YOUR MOVE Chris Stonock","postcode":"DH1 3AG","lat":54.775673,"lng":-1.572649,"rep_score":76.0,"rating":4.89,"total_reviews":411,"reply_rate":100.0,"rag":"GREEN","office_id":254455}]},"NG16":{"office_count":2,"total_reviews":43,"avg_rep_score":65.0,"avg_rating":4.65,"avg_reply_rate":null,"rag_breakdown":{"AMBER":2},"offices":[{"name":"Reeds Rains, Eastwood","postcode":"NG16 3NQ","lat":53.0179,"lng":-1.30661,"rep_score":60.0,"rating":5.0,"total_reviews":6,"reply_rate":null,"rag":"AMBER","office_id":243734},{"name":"Your Move (NG16)","postcode":"NG16 2LY","lat":52.99722,"lng":-1.256412,"rep_score":70.0,"rating":4.3,"total_reviews":37,"reply_rate":null,"rag":"AMBER","office_id":10405}]},"ST21":{"office_count":1,"total_reviews":4079,"avg_rep_score":74.0,"avg_rating":4.9,"avg_reply_rate":51.9,"rag_breakdown":{"GREEN":1},"offices":[{"name":"Reeds Rains, Eccleshall","postcode":"ST21 6BW","lat":52.8594,"lng":-2.25352,"rep_score":74.0,"rating":4.9,"total_reviews":4079,"reply_rate":51.85185185185185,"rag":"GREEN","office_id":243735}]},"WR11":{"office_count":1,"total_reviews":4274,"avg_rep_score":75.0,"avg_rating":4.61,"avg_reply_rate":45.5,"rag_breakdown":{"AMBER":1},"offices":[{"name":"Reeds Rains, Evesham","postcode":"WR11 4DH","lat":52.0933,"lng":-1.94729,"rep_score":75.0,"rating":4.61,"total_reviews":4274,"reply_rate":45.45454545454545,"rag":"AMBER","office_id":243736}]},"CT20":{"office_count":2,"total_reviews":4204,"avg_rep_score":68.5,"avg_rating":4.2,"avg_reply_rate":57.1,"rag_breakdown":{"GREEN":1,"AMBER":1},"offices":[{"name":"Reeds Rains, Folkestone","postcode":"CT20 2AF","lat":51.078118,"lng":1.178038,"rep_score":80.0,"rating":4.71,"total_reviews":4178,"reply_rate":57.14285714285714,"rag":"GREEN","office_id":3493},{"name":"Your Move (CT20)","postcode":"CT20 2BQ","lat":51.077877,"lng":1.176965,"rep_score":57.0,"rating":3.69,"total_reviews":26,"reply_rate":null,"rag":"AMBER","office_id":3499}]},"PR3":{"office_count":1,"total_reviews":2041,"avg_rep_score":78.0,"avg_rating":4.9,"avg_reply_rate":90.9,"rag_breakdown":{"GREEN":1},"offices":[{"name":"Reeds Rains, Garstang","postcode":"PR3 1FA","lat":53.901221,"lng":-2.773562,"rep_score":78.0,"rating":4.9,"total_reviews":2041,"reply_rate":90.9090909090909,"rag":"GREEN","office_id":12553}]},"BT36":{"office_count":1,"total_reviews":4184,"avg_rep_score":74.0,"avg_rating":4.77,"avg_reply_rate":46.3,"rag_breakdown":{"AMBER":1},"offices":[{"name":"Reeds Rains, Glengormley, NI","postcode":"BT36 6HN","lat":54.67167,"lng":-5.957686,"rep_score":74.0,"rating":4.77,"total_reviews":4184,"reply_rate":46.2962962962963,"rag":"AMBER","office_id":2149}]},"SK13":{"office_count":1,"total_reviews":244,"avg_rep_score":73.0,"avg_rating":5.0,"avg_reply_rate":38.1,"rag_breakdown":{"AMBER":1},"offices":[{"name":"Reeds Rains, Glossop","postcode":"SK13 8BH","lat":53.4435,"lng":-1.95195,"rep_score":73.0,"rating":5.0,"total_reviews":244,"reply_rate":38.095238095238095,"rag":"AMBER","office_id":243737}]},"NE3":{"office_count":1,"total_reviews":390,"avg_rep_score":74.0,"avg_rating":4.79,"avg_reply_rate":100.0,"rag_breakdown":{"GREEN":1},"offices":[{"name":"Reeds Rains, Gosforth","postcode":"NE3 2HH","lat":55.014,"lng":-1.62168,"rep_score":74.0,"rating":4.79,"total_reviews":390,"reply_rate":100.0,"rag":"GREEN","office_id":243738}]},"DN31":{"office_count":1,"total_reviews":2357,"avg_rep_score":76.0,"avg_rating":4.76,"avg_reply_rate":59.4,"rag_breakdown":{"GREEN":1},"offices":[{"name":"Reeds Rains, Grimsby","postcode":"DN31 1JU","lat":53.5643,"lng":-0.087427,"rep_score":76.0,"rating":4.76,"total_reviews":2357,"reply_rate":59.375,"rag":"GREEN","office_id":243739}]},"TS14":{"office_count":1,"total_reviews":104,"avg_rep_score":73.0,"avg_rating":4.77,"avg_reply_rate":75.0,"rag_breakdown":{"GREEN":1},"offices":[{"name":"Reeds Rains, Guisborough","postcode":"TS14 6HF","lat":54.536,"lng":-1.05139,"rep_score":73.0,"rating":4.77,"total_reviews":104,"reply_rate":75.0,"rag":"GREEN","office_id":243740}]},"HX1":{"office_count":1,"total_reviews":218,"avg_rep_score":82.0,"avg_rating":4.56,"avg_reply_rate":100.0,"rag_breakdown":{"GREEN":1},"offices":[{"name":"Reeds Rains, Halifax","postcode":"HX1 5AB","lat":53.721927,"lng":-1.864028,"rep_score":82.0,"rating":4.56,"total_reviews":218,"reply_rate":100.0,"rag":"GREEN","office_id":7231}]},"ST1":{"office_count":1,"total_reviews":2081,"avg_rep_score":70.0,"avg_rating":4.14,"avg_reply_rate":38.1,"rag_breakdown":{"AMBER":1},"offices":[{"name":"Reeds Rains, Hanley","postcode":"ST1 1EN","lat":53.0247,"lng":-2.17691,"rep_score":70.0,"rating":4.14,"total_reviews":2081,"reply_rate":38.095238095238095,"rag":"AMBER","office_id":243742}]},"YO32":{"office_count":1,"total_reviews":234,"avg_rep_score":81.0,"avg_rating":4.94,"avg_reply_rate":100.0,"rag_breakdown":{"GREEN":1},"offices":[{"name":"Reeds Rains, Haxby","postcode":"YO32 2HX","lat":54.016876,"lng":-1.07696,"rep_score":81.0,"rating":4.94,"total_reviews":234,"reply_rate":100.0,"rag":"GREEN","office_id":18218}]},"SK7":{"office_count":1,"total_reviews":273,"avg_rep_score":81.0,"avg_rating":4.65,"avg_reply_rate":100.0,"rag_breakdown":{"GREEN":1},"offices":[{"name":"Reeds Rains, Hazel Grove","postcode":"SK7 4HH","lat":53.381032,"lng":-2.122947,"rep_score":81.0,"rating":4.65,"total_reviews":273,"reply_rate":100.0,"rag":"GREEN","office_id":14239}]},"NE31":{"office_count":1,"total_reviews":55,"avg_rep_score":66.0,"avg_rating":4.49,"avg_reply_rate":100.0,"rag_breakdown":{"AMBER":1},"offices":[{"name":"Reeds Rains, Hebburn","postcode":"NE31 1LQ","lat":54.9725,"lng":-1.5195,"rep_score":66.0,"rating":4.49,"total_reviews":55,"reply_rate":100.0,"rag":"AMBER","office_id":243744}]},"HX7":{"office_count":1,"total_reviews":285,"avg_rep_score":72.0,"avg_rating":4.27,"avg_reply_rate":100.0,"rag_breakdown":{"GREEN":1},"offices":[{"name":"Reeds Rains, Hebden Bridge","postcode":"HX7 8EX","lat":53.7417,"lng":-2.01314,"rep_score":72.0,"rating":4.27,"total_reviews":285,"reply_rate":100.0,"rag":"GREEN","office_id":243745}]},"S6":{"office_count":1,"total_reviews":2139,"avg_rep_score":82.0,"avg_rating":4.72,"avg_reply_rate":82.4,"rag_breakdown":{"GREEN":1},"offices":[{"name":"Reeds Rains, Hillsborough","postcode":"S6 4GW","lat":53.403567,"lng":-1.503125,"rep_score":82.0,"rating":4.72,"total_reviews":2139,"reply_rate":82.35294117647058,"rag":"GREEN","office_id":13337}]},"CW4":{"office_count":1,"total_reviews":105,"avg_rep_score":73.0,"avg_rating":4.83,"avg_reply_rate":100.0,"rag_breakdown":{"GREEN":1},"offices":[{"name":"Reeds Rains, Holmes Chapel","postcode":"CW4 7AP","lat":53.201067,"lng":-2.356143,"rep_score":73.0,"rating":4.83,"total_reviews":105,"reply_rate":100.0,"rag":"GREEN","office_id":3800}]},"HD1":{"office_count":1,"total_reviews":2257,"avg_rep_score":75.0,"avg_rating":4.04,"avg_reply_rate":59.4,"rag_breakdown":{"GREEN":1},"offices":[{"name":"Reeds Rains, Huddersfield","postcode":"HD1 2AA","lat":53.646539,"lng":-1.781902,"rep_score":75.0,"rating":4.04,"total_reviews":2257,"reply_rate":59.375,"rag":"GREEN","office_id":6814}]},"HU9":{"office_count":1,"total_reviews":312,"avg_rep_score":76.0,"avg_rating":4.5,"avg_reply_rate":82.4,"rag_breakdown":{"GREEN":1},"offices":[{"name":"Reeds Rains, Hull","postcode":"HU9 3DS","lat":53.760147,"lng":-0.303015,"rep_score":76.0,"rating":4.5,"total_reviews":312,"reply_rate":82.35294117647058,"rag":"GREEN","office_id":7216}]},"SK14":{"office_count":1,"total_reviews":251,"avg_rep_score":81.0,"avg_rating":4.72,"avg_reply_rate":null,"rag_breakdown":{"AMBER":1},"offices":[{"name":"Reeds Rains, Hyde","postcode":"SK14 1ES","lat":53.450092,"lng":-2.078787,"rep_score":81.0,"rating":4.72,"total_reviews":251,"reply_rate":null,"rag":"AMBER","office_id":14143}]},"IG6":{"office_count":1,"total_reviews":2026,"avg_rep_score":65.0,"avg_rating":4.21,"avg_reply_rate":40.0,"rag_breakdown":{"AMBER":1},"offices":[{"name":"Reeds Rains, Ilford","postcode":"IG6 1HU","lat":51.5831,"lng":0.0765,"rep_score":65.0,"rating":4.21,"total_reviews":2026,"reply_rate":40.0,"rag":"AMBER","office_id":243749}]},"CV8":{"office_count":1,"total_reviews":2099,"avg_rep_score":63.0,"avg_rating":4.89,"avg_reply_rate":40.0,"rag_breakdown":{"AMBER":1},"offices":[{"name":"Reeds Rains, Kenilworth","postcode":"CV8 1HE","lat":52.341557,"lng":-1.578283,"rep_score":63.0,"rating":4.89,"total_reviews":2099,"reply_rate":40.0,"rag":"AMBER","office_id":3756}]},"SE1":{"office_count":1,"total_reviews":1896,"avg_rep_score":60.0,"avg_rating":4.22,"avg_reply_rate":null,"rag_breakdown":{"AMBER":1},"offices":[{"name":"Reeds Rains, Kennington","postcode":"SE1 7BL","lat":51.4976,"lng":-0.112267,"rep_score":60.0,"rating":4.22,"total_reviews":1896,"reply_rate":null,"rag":"AMBER","office_id":243750}]},"BT28":{"office_count":1,"total_reviews":4720,"avg_rep_score":75.0,"avg_rating":4.9,"avg_reply_rate":39.7,"rag_breakdown":{"AMBER":1},"offices":[{"name":"Reeds Rains, Lisburn NI","postcode":"BT28 1AB","lat":54.510587,"lng":-6.045104,"rep_score":75.0,"rating":4.9,"total_reviews":4720,"reply_rate":39.6551724137931,"rag":"AMBER","office_id":2097}]},"CH66":{"office_count":1,"total_reviews":2064,"avg_rep_score":68.0,"avg_rating":4.44,"avg_reply_rate":null,"rag_breakdown":{"RED":1},"offices":[{"name":"Reeds Rains, Little Sutton","postcode":"CH66 3RB","lat":53.2838,"lng":-2.94561,"rep_score":68.0,"rating":4.44,"total_reviews":2064,"reply_rate":null,"rag":"RED","office_id":243752}]},"SK11":{"office_count":1,"total_reviews":418,"avg_rep_score":76.0,"avg_rating":4.85,"avg_reply_rate":100.0,"rag_breakdown":{"GREEN":1},"offices":[{"name":"Reeds Rains, Macclesfield","postcode":"SK11 6LB","lat":53.259781,"lng":-2.124906,"rep_score":76.0,"rating":4.85,"total_reviews":418,"reply_rate":100.0,"rag":"GREEN","office_id":14113}]},"TS5":{"office_count":1,"total_reviews":443,"avg_rep_score":75.0,"avg_rating":4.66,"avg_reply_rate":91.2,"rag_breakdown":{"GREEN":1},"offices":[{"name":"Reeds Rains, Middlesbrough","postcode":"TS5 8SB","lat":54.5382,"lng":-1.26214,"rep_score":75.0,"rating":4.66,"total_reviews":443,"reply_rate":91.17647058823529,"rag":"GREEN","office_id":243753}]},"CW5":{"office_count":1,"total_reviews":101,"avg_rep_score":65.0,"avg_rating":4.8,"avg_reply_rate":null,"rag_breakdown":{"AMBER":1},"offices":[{"name":"Reeds Rains, Nantwich","postcode":"CW5 5AB","lat":53.0679,"lng":-2.52155,"rep_score":65.0,"rating":4.8,"total_reviews":101,"reply_rate":null,"rag":"AMBER","office_id":243754}]},"NE4":{"office_count":1,"total_reviews":3,"avg_rep_score":38.0,"avg_rating":5.0,"avg_reply_rate":null,"rag_breakdown":{"RED":1},"offices":[{"name":"Reeds Rains, Newcastle West","postcode":"NE4 9PT","lat":54.9754,"lng":-1.65253,"rep_score":38.0,"rating":5.0,"total_reviews":3,"reply_rate":null,"rag":"RED","office_id":243756}]},"ST5":{"office_count":1,"total_reviews":3944,"avg_rep_score":71.0,"avg_rating":4.35,"avg_reply_rate":22.2,"rag_breakdown":{"AMBER":1},"offices":[{"name":"Reeds Rains, Newcastle under Lyme","postcode":"ST5 1PN","lat":53.0108,"lng":-2.22653,"rep_score":71.0,"rating":4.35,"total_reviews":3944,"reply_rate":22.22222222222222,"rag":"AMBER","office_id":243755}]},"BT23":{"office_count":1,"total_reviews":3912,"avg_rep_score":68.0,"avg_rating":4.7,"avg_reply_rate":38.1,"rag_breakdown":{"AMBER":1},"offices":[{"name":"Reeds Rains, Newtownards NI","postcode":"BT23 4JA","lat":54.593999,"lng":-5.696249,"rep_score":68.0,"rating":4.7,"total_reviews":3912,"reply_rate":38.095238095238095,"rag":"AMBER","office_id":2079}]},"CW9":{"office_count":1,"total_reviews":164,"avg_rep_score":71.0,"avg_rating":4.38,"avg_reply_rate":100.0,"rag_breakdown":{"GREEN":1},"offices":[{"name":"Reeds Rains, Northwich","postcode":"CW9 5HA","lat":53.26,"lng":-2.51507,"rep_score":71.0,"rating":4.38,"total_reviews":164,"reply_rate":100.0,"rag":"GREEN","office_id":243757}]},"NG1":{"office_count":2,"total_reviews":2655,"avg_rep_score":76.0,"avg_rating":4.52,"avg_reply_rate":60.6,"rag_breakdown":{"GREEN":1,"AMBER":1},"offices":[{"name":"Reeds Rains, Nottingham","postcode":"NG1 2AG","lat":52.9552,"lng":-1.14999,"rep_score":75.0,"rating":4.67,"total_reviews":2492,"reply_rate":60.60606060606061,"rag":"GREEN","office_id":243758},{"name":"Your Move (NG1)","postcode":"NG1 3EP","lat":52.95544,"lng":-1.14839,"rep_score":77.0,"rating":4.36,"total_reviews":163,"reply_rate":null,"rag":"AMBER","office_id":10348}]},"BT7":{"office_count":1,"total_reviews":5014,"avg_rep_score":75.0,"avg_rating":4.9,"avg_reply_rate":31.1,"rag_breakdown":{"AMBER":1},"offices":[{"name":"Reeds Rains, Ormeau NI","postcode":"BT7 2FZ","lat":54.578,"lng":-5.91851,"rep_score":75.0,"rating":4.9,"total_reviews":5014,"reply_rate":31.147540983606557,"rag":"AMBER","office_id":243978}]},"WF5":{"office_count":1,"total_reviews":97,"avg_rep_score":75.0,"avg_rating":4.28,"avg_reply_rate":100.0,"rag_breakdown":{"GREEN":1},"offices":[{"name":"Reeds Rains, Ossett","postcode":"WF5 8ER","lat":53.679745,"lng":-1.580469,"rep_score":75.0,"rating":4.28,"total_reviews":97,"reply_rate":100.0,"rag":"GREEN","office_id":17828}]},"WN5":{"office_count":1,"total_reviews":301,"avg_rep_score":75.0,"avg_rating":4.73,"avg_reply_rate":75.0,"rag_breakdown":{"GREEN":1},"offices":[{"name":"Reeds Rains, Pemberton","postcode":"WN5 8AX","lat":53.5362,"lng":-2.68306,"rep_score":75.0,"rating":4.73,"total_reviews":301,"reply_rate":75.0,"rag":"GREEN","office_id":243760}]},"WF8":{"office_count":1,"total_reviews":229,"avg_rep_score":81.0,"avg_rating":4.68,"avg_reply_rate":100.0,"rag_breakdown":{"GREEN":1},"offices":[{"name":"Reeds Rains, Pontefract","postcode":"WF8 1AW","lat":53.691512,"lng":-1.312491,"rep_score":81.0,"rating":4.68,"total_reviews":229,"reply_rate":100.0,"rag":"GREEN","office_id":17836}]},"BS20":{"office_count":1,"total_reviews":2089,"avg_rep_score":75.0,"avg_rating":4.76,"avg_reply_rate":50.0,"rag_breakdown":{"GREEN":1},"offices":[{"name":"Reeds Rains, Portishead","postcode":"BS20 6EL","lat":51.4838,"lng":-2.76889,"rep_score":75.0,"rating":4.76,"total_reviews":2089,"reply_rate":50.0,"rag":"GREEN","office_id":243762}]},"PR1":{"office_count":1,"total_reviews":238,"avg_rep_score":78.0,"avg_rating":4.22,"avg_reply_rate":100.0,"rag_breakdown":{"GREEN":1},"offices":[{"name":"Reeds Rains, Preston","postcode":"PR1 2UH","lat":53.757491,"lng":-2.706622,"rep_score":78.0,"rating":4.22,"total_reviews":238,"reply_rate":100.0,"rag":"GREEN","office_id":12516}]},"BB4":{"office_count":1,"total_reviews":47,"avg_rep_score":65.0,"avg_rating":4.04,"avg_reply_rate":null,"rag_breakdown":{"AMBER":1},"offices":[{"name":"Reeds Rains, Rawtenstall","postcode":"BB4 8EG","lat":53.7039,"lng":-2.28529,"rep_score":65.0,"rating":4.04,"total_reviews":47,"reply_rate":null,"rag":"AMBER","office_id":243764}]},"SK5":{"office_count":1,"total_reviews":2167,"avg_rep_score":80.0,"avg_rating":4.65,"avg_reply_rate":80.0,"rag_breakdown":{"GREEN":1},"offices":[{"name":"Reeds Rains, Reddish","postcode":"SK5 7AA","lat":53.437095,"lng":-2.159281,"rep_score":80.0,"rating":4.65,"total_reviews":2167,"reply_rate":80.0,"rag":"GREEN","office_id":14209}]},"S60":{"office_count":1,"total_reviews":2387,"avg_rep_score":81.0,"avg_rating":4.63,"avg_reply_rate":43.5,"rag_breakdown":{"AMBER":1},"offices":[{"name":"Reeds Rains, Rotherham","postcode":"S60 2DG","lat":53.429848,"lng":-1.356031,"rep_score":81.0,"rating":4.63,"total_reviews":2387,"reply_rate":43.47826086956522,"rag":"AMBER","office_id":13344}]},"LS26":{"office_count":1,"total_reviews":47,"avg_rep_score":46.0,"avg_rating":4.83,"avg_reply_rate":null,"rag_breakdown":{"RED":1},"offices":[{"name":"Reeds Rains, Rothwell","postcode":"LS26 0QB","lat":53.748607,"lng":-1.478396,"rep_score":46.0,"rating":4.83,"total_reviews":47,"reply_rate":null,"rag":"RED","office_id":8823}]},"TN31":{"office_count":1,"total_reviews":111,"avg_rep_score":74.0,"avg_rating":4.75,"avg_reply_rate":100.0,"rag_breakdown":{"GREEN":1},"offices":[{"name":"Reeds Rains, Rye","postcode":"TN31 7AD","lat":50.9511,"lng":0.731068,"rep_score":74.0,"rating":4.75,"total_reviews":111,"reply_rate":100.0,"rag":"GREEN","office_id":243715}]},"M33":{"office_count":1,"total_reviews":2062,"avg_rep_score":78.0,"avg_rating":4.54,"avg_reply_rate":47.8,"rag_breakdown":{"AMBER":1},"offices":[{"name":"Reeds Rains, Sale","postcode":"M33 7XB","lat":53.425536,"lng":-2.323811,"rep_score":78.0,"rating":4.54,"total_reviews":2062,"reply_rate":47.82608695652174,"rag":"AMBER","office_id":9165}]},"M6":{"office_count":1,"total_reviews":247,"avg_rep_score":80.0,"avg_rating":4.5,"avg_reply_rate":87.5,"rag_breakdown":{"GREEN":1},"offices":[{"name":"Reeds Rains, Salford","postcode":"M6 5PW","lat":53.486336,"lng":-2.295159,"rep_score":80.0,"rating":4.5,"total_reviews":247,"reply_rate":87.5,"rag":"GREEN","office_id":9227}]},"M50":{"office_count":1,"total_reviews":417,"avg_rep_score":82.0,"avg_rating":4.75,"avg_reply_rate":93.3,"rag_breakdown":{"GREEN":1},"offices":[{"name":"Reeds Rains, Salford Quays","postcode":"M50 3YW","lat":53.474044,"lng":-2.28632,"rep_score":82.0,"rating":4.75,"total_reviews":417,"reply_rate":93.33333333333333,"rag":"GREEN","office_id":9226}]},"YO11":{"office_count":1,"total_reviews":347,"avg_rep_score":82.0,"avg_rating":4.58,"avg_reply_rate":100.0,"rag_breakdown":{"GREEN":1},"offices":[{"name":"Reeds Rains, Scarborough","postcode":"YO11 1XP","lat":54.282042,"lng":-0.402575,"rep_score":82.0,"rating":4.58,"total_reviews":347,"reply_rate":100.0,"rag":"GREEN","office_id":18150}]},"YO8":{"office_count":1,"total_reviews":2232,"avg_rep_score":75.0,"avg_rating":4.77,"avg_reply_rate":48.1,"rag_breakdown":{"AMBER":1},"offices":[{"name":"Reeds Rains, Selby","postcode":"YO8 4DT","lat":53.7846,"lng":-1.06918,"rep_score":75.0,"rating":4.77,"total_reviews":2232,"reply_rate":48.148148148148145,"rag":"AMBER","office_id":243768}]},"PO5":{"office_count":2,"total_reviews":2745,"avg_rep_score":78.5,"avg_rating":4.59,"avg_reply_rate":62.5,"rag_breakdown":{"GREEN":1,"AMBER":1},"offices":[{"name":"Reeds Rains, Southsea","postcode":"PO5 2AT","lat":50.7863,"lng":-1.08671,"rep_score":75.0,"rating":4.55,"total_reviews":2099,"reply_rate":100.0,"rag":"GREEN","office_id":243770},{"name":"Your Move Southsea","postcode":"PO5 2AT","lat":50.786259,"lng":-1.086708,"rep_score":82.0,"rating":4.63,"total_reviews":646,"reply_rate":25.0,"rag":"AMBER","office_id":12440}]},"DH9":{"office_count":1,"total_reviews":5,"avg_rep_score":32.0,"avg_rating":3.4,"avg_reply_rate":null,"rag_breakdown":{"RED":1},"offices":[{"name":"Reeds Rains, Stanley","postcode":"DH9 0TB","lat":54.8692,"lng":-1.7003,"rep_score":32.0,"rating":3.4,"total_reviews":5,"reply_rate":null,"rag":"RED","office_id":243772}]},"WF1":{"office_count":1,"total_reviews":226,"avg_rep_score":81.0,"avg_rating":4.59,"avg_reply_rate":100.0,"rag_breakdown":{"GREEN":1},"offices":[{"name":"Reeds Rains, Wakefield","postcode":"WF1 1HA","lat":53.683359,"lng":-1.498961,"rep_score":81.0,"rating":4.59,"total_reviews":226,"reply_rate":100.0,"rag":"GREEN","office_id":17768}]},"ME5":{"office_count":2,"total_reviews":190,"avg_rep_score":69.5,"avg_rating":4.67,"avg_reply_rate":null,"rag_breakdown":{"AMBER":2},"offices":[{"name":"Reeds Rains, Walderslade","postcode":"ME5 9LL","lat":51.3399,"lng":0.527201,"rep_score":62.0,"rating":4.75,"total_reviews":110,"reply_rate":null,"rag":"AMBER","office_id":243773},{"name":"Your Move Walderslade","postcode":"ME5 9LL","lat":51.3399,"lng":0.527201,"rep_score":77.0,"rating":4.58,"total_reviews":80,"reply_rate":null,"rag":"AMBER","office_id":9371}]},"L12":{"office_count":1,"total_reviews":172,"avg_rep_score":73.0,"avg_rating":4.56,"avg_reply_rate":75.0,"rag_breakdown":{"GREEN":1},"offices":[{"name":"Reeds Rains, West Derby","postcode":"L12 5HS","lat":53.4337,"lng":-2.912,"rep_score":73.0,"rating":4.56,"total_reviews":172,"reply_rate":75.0,"rag":"GREEN","office_id":243718}]},"SK9":{"office_count":1,"total_reviews":2373,"avg_rep_score":75.0,"avg_rating":4.76,"avg_reply_rate":45.8,"rag_breakdown":{"AMBER":1},"offices":[{"name":"Reeds Rains, Wilmslow","postcode":"SK9 1JX","lat":53.3255,"lng":-2.23363,"rep_score":75.0,"rating":4.76,"total_reviews":2373,"reply_rate":45.83333333333333,"rag":"AMBER","office_id":243774}]},"S8":{"office_count":1,"total_reviews":158,"avg_rep_score":75.0,"avg_rating":4.63,"avg_reply_rate":100.0,"rag_breakdown":{"GREEN":1},"offices":[{"name":"Reeds Rains, Woodseats","postcode":"S8 0SL","lat":53.343062,"lng":-1.477903,"rep_score":75.0,"rating":4.63,"total_reviews":158,"reply_rate":100.0,"rag":"GREEN","office_id":227819}]},"LL11":{"office_count":1,"total_reviews":32,"avg_rep_score":44.0,"avg_rating":4.13,"avg_reply_rate":null,"rag_breakdown":{"RED":1},"offices":[{"name":"Reeds Rains, Wrexham","postcode":"LL11 1LG","lat":53.047453,"lng":-2.996546,"rep_score":44.0,"rating":4.13,"total_reviews":32,"reply_rate":null,"rag":"RED","office_id":8528}]},"YO1":{"office_count":2,"total_reviews":529,"avg_rep_score":78.5,"avg_rating":4.88,"avg_reply_rate":null,"rag_breakdown":{"RED":1,"AMBER":1},"offices":[{"name":"Reeds Rains, York","postcode":"YO1 6JH","lat":53.957131,"lng":-1.086129,"rep_score":81.0,"rating":4.82,"total_reviews":277,"reply_rate":null,"rag":"RED","office_id":18114},{"name":"Your Move Anscombs","postcode":"YO1 8BN","lat":53.959949,"lng":-1.079666,"rep_score":76.0,"rating":4.94,"total_reviews":252,"reply_rate":null,"rag":"AMBER","office_id":258621}]},"CT9":{"office_count":2,"total_reviews":547,"avg_rep_score":76.5,"avg_rating":4.54,"avg_reply_rate":47.2,"rag_breakdown":{"AMBER":1,"GREEN":1},"offices":[{"name":"YOUR MOVE Charterhouse Lettings","postcode":"CT9 1JR","lat":51.3866,"lng":1.38102,"rep_score":74.0,"rating":4.54,"total_reviews":401,"reply_rate":44.44444444444444,"rag":"AMBER","office_id":254454},{"name":"Your Move (CT9)","postcode":"CT9 2QD","lat":51.387423,"lng":1.398416,"rep_score":79.0,"rating":4.53,"total_reviews":146,"reply_rate":50.0,"rag":"GREEN","office_id":3561}]},"NE16":{"office_count":1,"total_reviews":135,"avg_rep_score":76.0,"avg_rating":4.8,"avg_reply_rate":90.0,"rag_breakdown":{"GREEN":1},"offices":[{"name":"YOUR MOVE Chris Stonock","postcode":"NE16 4JQ","lat":54.945535,"lng":-1.680504,"rep_score":76.0,"rating":4.8,"total_reviews":135,"reply_rate":90.0,"rag":"GREEN","office_id":254465}]},"NE21":{"office_count":1,"total_reviews":191,"avg_rep_score":79.0,"avg_rating":4.89,"avg_reply_rate":null,"rag_breakdown":{"AMBER":1},"offices":[{"name":"YOUR MOVE Chris Stonock","postcode":"NE21 6AF","lat":54.954561,"lng":-1.726121,"rep_score":79.0,"rating":4.89,"total_reviews":191,"reply_rate":null,"rag":"AMBER","office_id":254459}]},"NE26":{"office_count":1,"total_reviews":351,"avg_rep_score":79.0,"avg_rating":4.82,"avg_reply_rate":100.0,"rag_breakdown":{"GREEN":1},"offices":[{"name":"YOUR MOVE Chris Stonock","postcode":"NE26 3QN","lat":55.043105,"lng":-1.45064,"rep_score":79.0,"rating":4.82,"total_reviews":351,"reply_rate":100.0,"rag":"GREEN","office_id":254460}]},"NE28":{"office_count":1,"total_reviews":578,"avg_rep_score":82.0,"avg_rating":4.82,"avg_reply_rate":100.0,"rag_breakdown":{"GREEN":1},"offices":[{"name":"YOUR MOVE Chris Stonock","postcode":"NE28 8PA","lat":54.991348,"lng":-1.533275,"rep_score":82.0,"rating":4.82,"total_reviews":578,"reply_rate":100.0,"rag":"GREEN","office_id":254461}]},"NE40":{"office_count":1,"total_reviews":163,"avg_rep_score":74.0,"avg_rating":4.89,"avg_reply_rate":100.0,"rag_breakdown":{"GREEN":1},"offices":[{"name":"YOUR MOVE Chris Stonock","postcode":"NE40 4NB","lat":54.966791,"lng":-1.789109,"rep_score":74.0,"rating":4.89,"total_reviews":163,"reply_rate":100.0,"rag":"GREEN","office_id":254462}]},"SR1":{"office_count":1,"total_reviews":307,"avg_rep_score":78.0,"avg_rating":4.61,"avg_reply_rate":93.3,"rag_breakdown":{"GREEN":1},"offices":[{"name":"YOUR MOVE Chris Stonock","postcode":"SR1 1QX","lat":54.90552,"lng":-1.380617,"rep_score":78.0,"rating":4.61,"total_reviews":307,"reply_rate":93.33333333333333,"rag":"GREEN","office_id":254464}]},"NE39":{"office_count":1,"total_reviews":368,"avg_rep_score":80.0,"avg_rating":4.88,"avg_reply_rate":100.0,"rag_breakdown":{"GREEN":1},"offices":[{"name":"YOUR MOVE Chris Stonock Lettings","postcode":"NE39 1JH","lat":54.919644,"lng":-1.744377,"rep_score":80.0,"rating":4.88,"total_reviews":368,"reply_rate":100.0,"rag":"GREEN","office_id":254466}]},"ML2":{"office_count":1,"total_reviews":39,"avg_rep_score":68.0,"avg_rating":4.79,"avg_reply_rate":100.0,"rag_breakdown":{"AMBER":1},"offices":[{"name":"YOUR MOVE First","postcode":"ML2 7BL","lat":55.7737,"lng":-3.91859,"rep_score":68.0,"rating":4.79,"total_reviews":39,"reply_rate":100.0,"rag":"AMBER","office_id":254469}]},"S73":{"office_count":1,"total_reviews":106,"avg_rep_score":67.0,"avg_rating":4.38,"avg_reply_rate":100.0,"rag_breakdown":{"AMBER":1},"offices":[{"name":"YOUR MOVE Furness Lyman","postcode":"S73 8DA","lat":53.524028,"lng":-1.400414,"rep_score":67.0,"rating":4.38,"total_reviews":106,"reply_rate":100.0,"rag":"AMBER","office_id":254471}]},"LN12":{"office_count":2,"total_reviews":81,"avg_rep_score":71.0,"avg_rating":4.85,"avg_reply_rate":81.9,"rag_breakdown":{"AMBER":1,"GREEN":1},"offices":[{"name":"YOUR MOVE Ian McCarthy","postcode":"LN12 2EX","lat":53.3136,"lng":0.281724,"rep_score":68.0,"rating":4.85,"total_reviews":40,"reply_rate":75.0,"rag":"AMBER","office_id":254473},{"name":"Your Move Sutton on Sea","postcode":"LN12 2HB","lat":53.3131,"lng":0.280768,"rep_score":74.0,"rating":4.85,"total_reviews":41,"reply_rate":88.88888888888889,"rag":"GREEN","office_id":8669}]},"LU1":{"office_count":1,"total_reviews":18,"avg_rep_score":40.0,"avg_rating":4.0,"avg_reply_rate":null,"rag_breakdown":{"RED":1},"offices":[{"name":"YOUR MOVE Jameson Owen","postcode":"LU1 2QH","lat":51.8788,"lng":-0.418086,"rep_score":40.0,"rating":4.0,"total_reviews":18,"reply_rate":null,"rag":"RED","office_id":254475}]},"ML5":{"office_count":1,"total_reviews":32,"avg_rep_score":62.0,"avg_rating":4.33,"avg_reply_rate":null,"rag_breakdown":{"AMBER":1},"offices":[{"name":"YOUR MOVE McLaughlin","postcode":"ML5 4EJ","lat":55.8519,"lng":-4.02057,"rep_score":62.0,"rating":4.33,"total_reviews":32,"reply_rate":null,"rag":"AMBER","office_id":254484}]},"NN1":{"office_count":3,"total_reviews":2032,"avg_rep_score":80.0,"avg_rating":4.83,"avg_reply_rate":90.8,"rag_breakdown":{"GREEN":3},"offices":[{"name":"YOUR MOVE Nolan Throw","postcode":"NN1 4EW","lat":52.243026,"lng":-0.873798,"rep_score":82.0,"rating":4.88,"total_reviews":698,"reply_rate":93.33333333333333,"rag":"GREEN","office_id":254486},{"name":"YOUR MOVE Nolan Throw","postcode":"NN1 1EW","lat":52.2358,"lng":-0.894819,"rep_score":76.0,"rating":4.84,"total_reviews":476,"reply_rate":89.47368421052632,"rag":"GREEN","office_id":254485},{"name":"Your Move Northampton","postcode":"NN1 1NH","lat":52.236259,"lng":-0.896975,"rep_score":82.0,"rating":4.77,"total_reviews":858,"reply_rate":89.47368421052632,"rag":"GREEN","office_id":22256}]},"NN16":{"office_count":1,"total_reviews":495,"avg_rep_score":76.0,"avg_rating":4.88,"avg_reply_rate":100.0,"rag_breakdown":{"GREEN":1},"offices":[{"name":"YOUR MOVE Nolan Throw","postcode":"NN16 0BN","lat":52.400328,"lng":-0.726033,"rep_score":76.0,"rating":4.88,"total_reviews":495,"reply_rate":100.0,"rag":"GREEN","office_id":254487}]},"NN2":{"office_count":1,"total_reviews":241,"avg_rep_score":76.0,"avg_rating":4.92,"avg_reply_rate":75.0,"rag_breakdown":{"GREEN":1},"offices":[{"name":"YOUR MOVE Nolan Throw","postcode":"NN2 7SL","lat":52.264631,"lng":-0.899582,"rep_score":76.0,"rating":4.92,"total_reviews":241,"reply_rate":75.0,"rag":"GREEN","office_id":254488}]},"NN5":{"office_count":1,"total_reviews":452,"avg_rep_score":82.0,"avg_rating":4.88,"avg_reply_rate":100.0,"rag_breakdown":{"GREEN":1},"offices":[{"name":"YOUR MOVE Nolan Throw","postcode":"NN5 6JF","lat":52.243413,"lng":-0.944852,"rep_score":82.0,"rating":4.88,"total_reviews":452,"reply_rate":100.0,"rag":"GREEN","office_id":254489}]},"NR31":{"office_count":1,"total_reviews":396,"avg_rep_score":78.0,"avg_rating":4.47,"avg_reply_rate":50.0,"rag_breakdown":{"GREEN":1},"offices":[{"name":"YOUR MOVE Oliver James","postcode":"NR31 6RG","lat":52.580062,"lng":1.728043,"rep_score":78.0,"rating":4.47,"total_reviews":396,"reply_rate":50.0,"rag":"GREEN","office_id":254490}]},"NR32":{"office_count":1,"total_reviews":172,"avg_rep_score":72.0,"avg_rating":4.38,"avg_reply_rate":null,"rag_breakdown":{"RED":1},"offices":[{"name":"YOUR MOVE Oliver James","postcode":"NR32 1HB","lat":52.47772,"lng":1.754392,"rep_score":72.0,"rating":4.38,"total_reviews":172,"reply_rate":null,"rag":"RED","office_id":254491}]},"BD17":{"office_count":1,"total_reviews":266,"avg_rep_score":60.0,"avg_rating":4.59,"avg_reply_rate":44.4,"rag_breakdown":{"AMBER":1},"offices":[{"name":"YOUR MOVE Roebuck Residential Lettings","postcode":"BD17 6LX","lat":53.853359,"lng":-1.765658,"rep_score":60.0,"rating":4.59,"total_reviews":266,"reply_rate":44.44444444444444,"rag":"AMBER","office_id":254493}]},"KY8":{"office_count":1,"total_reviews":421,"avg_rep_score":76.0,"avg_rating":4.93,"avg_reply_rate":60.0,"rag_breakdown":{"GREEN":1},"offices":[{"name":"YOUR MOVE Stewart Filshill","postcode":"KY8 4LE","lat":56.195851,"lng":-2.997355,"rep_score":76.0,"rating":4.93,"total_reviews":421,"reply_rate":60.0,"rag":"GREEN","office_id":254496}]},"RM1":{"office_count":2,"total_reviews":354,"avg_rep_score":75.0,"avg_rating":4.62,"avg_reply_rate":null,"rag_breakdown":{"RED":2},"offices":[{"name":"YOUR MOVE Stewart and Co","postcode":"RM1 2JT","lat":51.5748,"lng":0.185354,"rep_score":75.0,"rating":4.59,"total_reviews":189,"reply_rate":null,"rag":"RED","office_id":254495},{"name":"Your Move Romford","postcode":"RM1 2HU","lat":51.574491,"lng":0.184533,"rep_score":75.0,"rating":4.65,"total_reviews":165,"reply_rate":null,"rag":"RED","office_id":233987}]},"B68":{"office_count":1,"total_reviews":1,"avg_rep_score":35.0,"avg_rating":4.0,"avg_reply_rate":null,"rag_breakdown":{"RED":1},"offices":[{"name":"Your Move (B68)","postcode":"B68 0BZ","lat":52.4635,"lng":-1.99692,"rep_score":35.0,"rating":4.0,"total_reviews":1,"reply_rate":null,"rag":"RED","office_id":484}]},"BA14":{"office_count":1,"total_reviews":22,"avg_rep_score":36.0,"avg_rating":3.86,"avg_reply_rate":null,"rag_breakdown":{"RED":1},"offices":[{"name":"Your Move (BA14)","postcode":"BA14 7US","lat":51.327968,"lng":-2.178076,"rep_score":36.0,"rating":3.86,"total_reviews":22,"reply_rate":null,"rag":"RED","office_id":22251}]},"BA3":{"office_count":2,"total_reviews":459,"avg_rep_score":78.0,"avg_rating":4.81,"avg_reply_rate":100.0,"rag_breakdown":{"GREEN":2},"offices":[{"name":"Your Move (BA3)","postcode":"BA3 2DQ","lat":51.2887,"lng":-2.47815,"rep_score":81.0,"rating":4.76,"total_reviews":257,"reply_rate":100.0,"rag":"GREEN","office_id":741},{"name":"Your Move, Midsomer Norton","postcode":"BA3 2DE","lat":51.287452,"lng":-2.479238,"rep_score":75.0,"rating":4.87,"total_reviews":202,"reply_rate":100.0,"rag":"GREEN","office_id":243984}]},"BN11":{"office_count":1,"total_reviews":31,"avg_rep_score":48.0,"avg_rating":4.35,"avg_reply_rate":null,"rag_breakdown":{"RED":1},"offices":[{"name":"Your Move (BN11)","postcode":"BN11 1BJ","lat":50.8123,"lng":-0.370202,"rep_score":48.0,"rating":4.35,"total_reviews":31,"reply_rate":null,"rag":"RED","office_id":1370}]},"BS31":{"office_count":2,"total_reviews":143,"avg_rep_score":61.0,"avg_rating":4.56,"avg_reply_rate":null,"rag_breakdown":{"RED":1,"AMBER":1},"offices":[{"name":"Your Move (BS31)","postcode":"BS31 1EA","lat":51.4146,"lng":-2.49827,"rep_score":49.0,"rating":4.36,"total_reviews":39,"reply_rate":null,"rag":"RED","office_id":1891},{"name":"Your Move, Keynsham","postcode":"BS31 1EH","lat":51.413279,"lng":-2.497749,"rep_score":73.0,"rating":4.77,"total_reviews":104,"reply_rate":null,"rag":"AMBER","office_id":225161}]},"CT1":{"office_count":2,"total_reviews":2142,"avg_rep_score":63.5,"avg_rating":3.88,"avg_reply_rate":14.3,"rag_breakdown":{"RED":1,"AMBER":1},"offices":[{"name":"Your Move (CT1)","postcode":"CT1 2TP","lat":51.2777,"lng":1.07912,"rep_score":72.0,"rating":4.26,"total_reviews":2040,"reply_rate":14.285714285714285,"rag":"RED","office_id":247706},{"name":"Your Move Canterbury","postcode":"CT1 2AX","lat":51.2775,"lng":1.07885,"rep_score":55.0,"rating":3.49,"total_reviews":102,"reply_rate":null,"rag":"AMBER","office_id":3403}]},"CT6":{"office_count":1,"total_reviews":7,"avg_rep_score":36.0,"avg_rating":4.14,"avg_reply_rate":null,"rag_breakdown":{"RED":1},"offices":[{"name":"Your Move (CT6)","postcode":"CT6 5JY","lat":51.371156,"lng":1.127154,"rep_score":36.0,"rating":4.14,"total_reviews":7,"reply_rate":null,"rag":"RED","office_id":3540}]},"CW2":{"office_count":2,"total_reviews":119,"avg_rep_score":69.0,"avg_rating":4.5,"avg_reply_rate":100.0,"rag_breakdown":{"AMBER":1,"GREEN":1},"offices":[{"name":"Your Move (CW2)","postcode":"CW2 6BY","lat":53.087,"lng":-2.44734,"rep_score":68.0,"rating":4.49,"total_reviews":59,"reply_rate":100.0,"rag":"AMBER","office_id":254444},{"name":"Your Move Crewe","postcode":"CW2 6BP","lat":53.087024,"lng":-2.44653,"rep_score":70.0,"rating":4.5,"total_reviews":60,"reply_rate":100.0,"rag":"GREEN","office_id":3792}]},"DA12":{"office_count":2,"total_reviews":548,"avg_rep_score":79.0,"avg_rating":4.64,"avg_reply_rate":100.0,"rag_breakdown":{"GREEN":2},"offices":[{"name":"Your Move (DA12)","postcode":"DA12 1ES","lat":51.440957,"lng":0.371199,"rep_score":82.0,"rating":4.66,"total_reviews":299,"reply_rate":100.0,"rag":"GREEN","office_id":3875},{"name":"Your Move Gravesend","postcode":"DA12 1AD","lat":51.4416,"lng":0.369595,"rep_score":76.0,"rating":4.63,"total_reviews":249,"reply_rate":100.0,"rag":"GREEN","office_id":224927}]},"DA14":{"office_count":1,"total_reviews":24,"avg_rep_score":37.0,"avg_rating":3.92,"avg_reply_rate":null,"rag_breakdown":{"RED":1},"offices":[{"name":"Your Move (DA14)","postcode":"DA14 6NF","lat":51.426272,"lng":0.100151,"rep_score":37.0,"rating":3.92,"total_reviews":24,"reply_rate":null,"rag":"RED","office_id":3891}]},"DA16":{"office_count":1,"total_reviews":72,"avg_rep_score":75.0,"avg_rating":4.57,"avg_reply_rate":null,"rag_breakdown":{"AMBER":1},"offices":[{"name":"Your Move (DA16)","postcode":"DA16 1TJ","lat":51.462158,"lng":0.108407,"rep_score":75.0,"rating":4.57,"total_reviews":72,"reply_rate":null,"rag":"AMBER","office_id":3905}]},"DA17":{"office_count":1,"total_reviews":6,"avg_rep_score":33.0,"avg_rating":3.5,"avg_reply_rate":null,"rag_breakdown":{"RED":1},"offices":[{"name":"Your Move (DA17)","postcode":"DA17 5JN","lat":51.481913,"lng":0.145713,"rep_score":33.0,"rating":3.5,"total_reviews":6,"reply_rate":null,"rag":"RED","office_id":3916}]},"DA6":{"office_count":2,"total_reviews":201,"avg_rep_score":61.0,"avg_rating":4.45,"avg_reply_rate":14.3,"rag_breakdown":{"RED":2},"offices":[{"name":"Your Move (DA6)","postcode":"DA6 7BN","lat":51.457189,"lng":0.141905,"rep_score":48.0,"rating":4.34,"total_reviews":47,"reply_rate":null,"rag":"RED","office_id":3938},{"name":"Your Move Bexleyheath","postcode":"DA6 7DE","lat":51.4567,"lng":0.145453,"rep_score":74.0,"rating":4.56,"total_reviews":154,"reply_rate":14.285714285714285,"rag":"RED","office_id":3939}]},"DE55":{"office_count":1,"total_reviews":15,"avg_rep_score":null,"avg_rating":2.67,"avg_reply_rate":null,"rag_breakdown":{"RED":1},"offices":[{"name":"Your Move (DE55)","postcode":"DE55 7AG","lat":53.097207,"lng":-1.390771,"rep_score":null,"rating":2.67,"total_reviews":15,"reply_rate":null,"rag":"RED","office_id":4098}]},"DN22":{"office_count":1,"total_reviews":31,"avg_rep_score":69.0,"avg_rating":4.1,"avg_reply_rate":null,"rag_breakdown":{"AMBER":1},"offices":[{"name":"Your Move (DN22)","postcode":"DN22 6DW","lat":53.323594,"lng":-0.942752,"rep_score":69.0,"rating":4.1,"total_reviews":31,"reply_rate":null,"rag":"AMBER","office_id":4422}]},"E14":{"office_count":1,"total_reviews":1,"avg_rep_score":20.0,"avg_rating":3.0,"avg_reply_rate":null,"rag_breakdown":{"RED":1},"offices":[{"name":"Your Move (E14)","postcode":"E14 0EA","lat":51.511405,"lng":-0.013781,"rep_score":20.0,"rating":3.0,"total_reviews":1,"reply_rate":null,"rag":"RED","office_id":4709}]},"E17":{"office_count":2,"total_reviews":1307,"avg_rep_score":76.0,"avg_rating":4.9,"avg_reply_rate":91.0,"rag_breakdown":{"GREEN":2},"offices":[{"name":"Your Move (E17)","postcode":"E17 3AL","lat":51.5843,"lng":-0.01909,"rep_score":76.0,"rating":4.9,"total_reviews":611,"reply_rate":87.5,"rag":"GREEN","office_id":254448},{"name":"Your Move Walthamstow","postcode":"E17 3AY","lat":51.584406,"lng":-0.019563,"rep_score":76.0,"rating":4.9,"total_reviews":696,"reply_rate":94.44444444444444,"rag":"GREEN","office_id":4881}]},"E7":{"office_count":1,"total_reviews":154,"avg_rep_score":73.0,"avg_rating":4.65,"avg_reply_rate":null,"rag_breakdown":{"AMBER":1},"offices":[{"name":"Your Move (E7)","postcode":"E7 9BB","lat":51.5494,"lng":0.022157,"rep_score":73.0,"rating":4.65,"total_reviews":154,"reply_rate":null,"rag":"AMBER","office_id":254449}]},"EH48":{"office_count":1,"total_reviews":2,"avg_rep_score":23.0,"avg_rating":3.0,"avg_reply_rate":null,"rag_breakdown":{"RED":1},"offices":[{"name":"Your Move (EH48)","postcode":"EH48 1AX","lat":55.900102,"lng":-3.640315,"rep_score":23.0,"rating":3.0,"total_reviews":2,"reply_rate":null,"rag":"RED","office_id":5268}]},"EH54":{"office_count":1,"total_reviews":106,"avg_rep_score":73.0,"avg_rating":4.77,"avg_reply_rate":null,"rag_breakdown":{"AMBER":1},"offices":[{"name":"Your Move (EH54)","postcode":"EH54 6NB","lat":55.8848043,"lng":-3.5100724,"rep_score":73.0,"rating":4.77,"total_reviews":106,"reply_rate":null,"rag":"AMBER","office_id":222931}]},"EX4":{"office_count":1,"total_reviews":10,"avg_rep_score":44.0,"avg_rating":4.6,"avg_reply_rate":null,"rag_breakdown":{"RED":1},"offices":[{"name":"Your Move (EX4)","postcode":"EX4 3QR","lat":50.722861,"lng":-3.532819,"rep_score":44.0,"rating":4.6,"total_reviews":10,"reply_rate":null,"rag":"RED","office_id":5636}]},"EX8":{"office_count":2,"total_reviews":333,"avg_rep_score":72.5,"avg_rating":4.29,"avg_reply_rate":90.9,"rag_breakdown":{"AMBER":1,"GREEN":1},"offices":[{"name":"Your Move (EX8)","postcode":"EX8 2SN","lat":50.618439,"lng":-3.411865,"rep_score":71.0,"rating":4.32,"total_reviews":82,"reply_rate":null,"rag":"AMBER","office_id":22252},{"name":"Your Move Exmouth","postcode":"EX8 1NW","lat":50.618891,"lng":-3.412402,"rep_score":74.0,"rating":4.26,"total_reviews":251,"reply_rate":90.9090909090909,"rag":"GREEN","office_id":5662}]},"HP1":{"office_count":1,"total_reviews":142,"avg_rep_score":79.0,"avg_rating":4.61,"avg_reply_rate":null,"rag_breakdown":{"AMBER":1},"offices":[{"name":"Your Move (HP1)","postcode":"HP1 1LA","lat":51.756662,"lng":-0.47246,"rep_score":79.0,"rating":4.61,"total_reviews":142,"reply_rate":null,"rag":"AMBER","office_id":6906}]},"KT1":{"office_count":1,"total_reviews":43,"avg_rep_score":67.0,"avg_rating":4.09,"avg_reply_rate":null,"rag_breakdown":{"AMBER":1},"offices":[{"name":"Your Move (KT1)","postcode":"KT1 1SF","lat":51.412113,"lng":-0.301894,"rep_score":67.0,"rating":4.09,"total_reviews":43,"reply_rate":null,"rag":"AMBER","office_id":7712}]},"KT3":{"office_count":1,"total_reviews":3,"avg_rep_score":45.0,"avg_rating":5.0,"avg_reply_rate":null,"rag_breakdown":{"RED":1},"offices":[{"name":"Your Move (KT3)","postcode":"KT3 4BT","lat":51.401508,"lng":-0.256382,"rep_score":45.0,"rating":5.0,"total_reviews":3,"reply_rate":null,"rag":"RED","office_id":7903}]},"KT9":{"office_count":1,"total_reviews":29,"avg_rep_score":70.0,"avg_rating":4.52,"avg_reply_rate":null,"rag_breakdown":{"AMBER":1},"offices":[{"name":"Your Move (KT9)","postcode":"KT9 1AB","lat":51.367375,"lng":-0.306178,"rep_score":70.0,"rating":4.52,"total_reviews":29,"reply_rate":null,"rag":"AMBER","office_id":7982}]},"LE4":{"office_count":1,"total_reviews":23,"avg_rep_score":68.0,"avg_rating":4.35,"avg_reply_rate":null,"rag_breakdown":{"AMBER":1},"offices":[{"name":"Your Move (LE4)","postcode":"LE4 4ND","lat":52.680047,"lng":-1.12466,"rep_score":68.0,"rating":4.35,"total_reviews":23,"reply_rate":null,"rag":"AMBER","office_id":8470}]},"LN1":{"office_count":1,"total_reviews":95,"avg_rep_score":63.0,"avg_rating":3.87,"avg_reply_rate":null,"rag_breakdown":{"AMBER":1},"offices":[{"name":"Your Move (LN1)","postcode":"LN1 1UY","lat":53.229579,"lng":-0.54253,"rep_score":63.0,"rating":3.87,"total_reviews":95,"reply_rate":null,"rag":"AMBER","office_id":8649}]},"LS17":{"office_count":1,"total_reviews":8,"avg_rep_score":65.0,"avg_rating":5.0,"avg_reply_rate":null,"rag_breakdown":{"AMBER":1},"offices":[{"name":"Your Move (LS17)","postcode":"LS17 6PY","lat":53.843531,"lng":-1.533284,"rep_score":65.0,"rating":5.0,"total_reviews":8,"reply_rate":null,"rag":"AMBER","office_id":8767}]},"M27":{"office_count":2,"total_reviews":647,"avg_rep_score":77.5,"avg_rating":4.46,"avg_reply_rate":84.2,"rag_breakdown":{"AMBER":1,"GREEN":1},"offices":[{"name":"Your Move (M27)","postcode":"M27 0FH","lat":53.503372,"lng":-2.356668,"rep_score":76.0,"rating":4.26,"total_reviews":127,"reply_rate":null,"rag":"AMBER","office_id":22254},{"name":"Your Move Swinton","postcode":"M27 0FW","lat":53.503862,"lng":-2.355376,"rep_score":79.0,"rating":4.65,"total_reviews":520,"reply_rate":84.21052631578947,"rag":"GREEN","office_id":9091}]},"M29":{"office_count":2,"total_reviews":45,"avg_rep_score":54.5,"avg_rating":3.54,"avg_reply_rate":null,"rag_breakdown":{"AMBER":2},"offices":[{"name":"Your Move (M29)","postcode":"M29 7BQ","lat":53.502148,"lng":-2.447958,"rep_score":52.0,"rating":3.5,"total_reviews":22,"reply_rate":null,"rag":"AMBER","office_id":9111},{"name":"Your Move (M29)","postcode":"M29 8DS","lat":53.513903,"lng":-2.464972,"rep_score":57.0,"rating":3.57,"total_reviews":23,"reply_rate":null,"rag":"AMBER","office_id":22255}]},"ME1":{"office_count":2,"total_reviews":380,"avg_rep_score":76.5,"avg_rating":4.61,"avg_reply_rate":null,"rag_breakdown":{"RED":2},"offices":[{"name":"Your Move (ME1)","postcode":"ME1 1EH","lat":51.386038,"lng":0.507505,"rep_score":79.0,"rating":4.53,"total_reviews":262,"reply_rate":null,"rag":"RED","office_id":9240},{"name":"Your Move Rochester","postcode":"ME1 1ER","lat":51.38707,"lng":0.505995,"rep_score":74.0,"rating":4.69,"total_reviews":118,"reply_rate":null,"rag":"RED","office_id":243991}]},"ME16":{"office_count":1,"total_reviews":1,"avg_rep_score":45.0,"avg_rating":5.0,"avg_reply_rate":null,"rag_breakdown":{"RED":1},"offices":[{"name":"Your Move (ME16)","postcode":"ME16 8TR","lat":51.268208,"lng":0.488784,"rep_score":45.0,"rating":5.0,"total_reviews":1,"reply_rate":null,"rag":"RED","office_id":9315}]},"ME2":{"office_count":1,"total_reviews":13,"avg_rep_score":null,"avg_rating":2.69,"avg_reply_rate":null,"rag_breakdown":{"RED":1},"offices":[{"name":"Your Move (ME2)","postcode":"ME2 4TJ","lat":51.395694,"lng":0.494189,"rep_score":null,"rating":2.69,"total_reviews":13,"reply_rate":null,"rag":"RED","office_id":9343}]},"ML3":{"office_count":1,"total_reviews":149,"avg_rep_score":74.0,"avg_rating":4.76,"avg_reply_rate":100.0,"rag_breakdown":{"GREEN":1},"offices":[{"name":"Your Move (ML3)","postcode":"ML3 6EE","lat":55.7762,"lng":-4.03449,"rep_score":74.0,"rating":4.76,"total_reviews":149,"reply_rate":100.0,"rag":"GREEN","office_id":254451}]},"NE42":{"office_count":1,"total_reviews":1,"avg_rep_score":37.0,"avg_rating":5.0,"avg_reply_rate":null,"rag_breakdown":{"RED":1},"offices":[{"name":"Your Move (NE42)","postcode":"NE42 5AA","lat":54.961292,"lng":-1.849842,"rep_score":37.0,"rating":5.0,"total_reviews":1,"reply_rate":null,"rag":"RED","office_id":10250}]},"NE66":{"office_count":1,"total_reviews":2,"avg_rep_score":15.0,"avg_rating":3.0,"avg_reply_rate":null,"rag_breakdown":{"RED":1},"offices":[{"name":"Your Move (NE66)","postcode":"NE66 1SX","lat":55.412803,"lng":-1.705257,"rep_score":15.0,"rating":3.0,"total_reviews":2,"reply_rate":null,"rag":"RED","office_id":10311}]},"NG15":{"office_count":1,"total_reviews":9,"avg_rep_score":41.0,"avg_rating":4.11,"avg_reply_rate":null,"rag_breakdown":{"RED":1},"offices":[{"name":"Your Move (NG15)","postcode":"NG15 7HJ","lat":53.037525,"lng":-1.201881,"rep_score":41.0,"rating":4.11,"total_reviews":9,"reply_rate":null,"rag":"RED","office_id":10401}]},"NG9":{"office_count":2,"total_reviews":26,"avg_rep_score":51.5,"avg_rating":4.63,"avg_reply_rate":null,"rag_breakdown":{"RED":1,"AMBER":1},"offices":[{"name":"Your Move (NG9)","postcode":"NG9 7AB","lat":52.928178,"lng":-1.277886,"rep_score":45.0,"rating":5.0,"total_reviews":7,"reply_rate":null,"rag":"RED","office_id":10582},{"name":"Your Move Beeston","postcode":"NG9 2LH","lat":52.929206,"lng":-1.211758,"rep_score":58.0,"rating":4.26,"total_reviews":19,"reply_rate":null,"rag":"AMBER","office_id":10576}]},"PE1":{"office_count":1,"total_reviews":13,"avg_rep_score":49.0,"avg_rating":5.0,"avg_reply_rate":null,"rag_breakdown":{"RED":1},"offices":[{"name":"Your Move (PE1)","postcode":"PE1 1NA","lat":52.572512,"lng":-0.245685,"rep_score":49.0,"rating":5.0,"total_reviews":13,"reply_rate":null,"rag":"RED","office_id":11769}]},"PL25":{"office_count":1,"total_reviews":1,"avg_rep_score":null,"avg_rating":1.0,"avg_reply_rate":null,"rag_breakdown":{"RED":1},"offices":[{"name":"Your Move (PL25)","postcode":"PL25 5PE","lat":50.338159,"lng":-4.792583,"rep_score":null,"rating":1.0,"total_reviews":1,"reply_rate":null,"rag":"RED","office_id":12131}]},"PO9":{"office_count":1,"total_reviews":34,"avg_rep_score":61.0,"avg_rating":4.59,"avg_reply_rate":null,"rag_breakdown":{"AMBER":1},"offices":[{"name":"Your Move (PO9)","postcode":"PO9 1EJ","lat":50.851461,"lng":-0.982841,"rep_score":61.0,"rating":4.59,"total_reviews":34,"reply_rate":null,"rag":"AMBER","office_id":12496}]},"RG21":{"office_count":1,"total_reviews":47,"avg_rep_score":49.0,"avg_rating":4.38,"avg_reply_rate":null,"rag_breakdown":{"RED":1},"offices":[{"name":"Your Move (RG21)","postcode":"RG21 7DE","lat":51.263018,"lng":-1.088731,"rep_score":49.0,"rating":4.38,"total_reviews":47,"reply_rate":null,"rag":"RED","office_id":12751}]},"S11":{"office_count":1,"total_reviews":298,"avg_rep_score":74.0,"avg_rating":4.55,"avg_reply_rate":27.3,"rag_breakdown":{"AMBER":1},"offices":[{"name":"Your Move (S11)","postcode":"S11 8TN","lat":53.361457,"lng":-1.508002,"rep_score":74.0,"rating":4.55,"total_reviews":298,"reply_rate":27.27272727272727,"rag":"AMBER","office_id":13243}]},"SL3":{"office_count":2,"total_reviews":133,"avg_rep_score":67.0,"avg_rating":4.14,"avg_reply_rate":55.0,"rag_breakdown":{"AMBER":2},"offices":[{"name":"Your Move (SL3)","postcode":"SL3 8HD","lat":51.503415,"lng":-0.541948,"rep_score":66.0,"rating":4.13,"total_reviews":16,"reply_rate":null,"rag":"AMBER","office_id":14321},{"name":"Your Move Frank Farr Langley","postcode":"SL3 8LL","lat":51.5014,"lng":-0.542488,"rep_score":68.0,"rating":4.15,"total_reviews":117,"reply_rate":55.00000000000001,"rag":"AMBER","office_id":258795}]},"SN11":{"office_count":1,"total_reviews":20,"avg_rep_score":49.0,"avg_rating":4.55,"avg_reply_rate":null,"rag_breakdown":{"RED":1},"offices":[{"name":"Your Move (SN11)","postcode":"SN11 0BZ","lat":51.439879,"lng":-2.004944,"rep_score":49.0,"rating":4.55,"total_reviews":20,"reply_rate":null,"rag":"RED","office_id":14532}]},"SO23":{"office_count":1,"total_reviews":5,"avg_rep_score":45.0,"avg_rating":4.6,"avg_reply_rate":null,"rag_breakdown":{"RED":1},"offices":[{"name":"Your Move (SO23)","postcode":"SO23 9AP","lat":51.063432,"lng":-1.317772,"rep_score":45.0,"rating":4.6,"total_reviews":5,"reply_rate":null,"rag":"RED","office_id":14708}]},"SO31":{"office_count":1,"total_reviews":10,"avg_rep_score":41.0,"avg_rating":4.2,"avg_reply_rate":null,"rag_breakdown":{"RED":1},"offices":[{"name":"Your Move (SO31)","postcode":"SO31 7GH","lat":50.872356,"lng":-1.26798,"rep_score":41.0,"rating":4.2,"total_reviews":10,"reply_rate":null,"rag":"RED","office_id":14749}]},"SO40":{"office_count":1,"total_reviews":10,"avg_rep_score":45.0,"avg_rating":4.6,"avg_reply_rate":null,"rag_breakdown":{"RED":1},"offices":[{"name":"Your Move (SO40)","postcode":"SO40 3PY","lat":50.919426,"lng":-1.489898,"rep_score":45.0,"rating":4.6,"total_reviews":10,"reply_rate":null,"rag":"RED","office_id":22258}]},"ST3":{"office_count":2,"total_reviews":230,"avg_rep_score":74.5,"avg_rating":4.62,"avg_reply_rate":null,"rag_breakdown":{"AMBER":2},"offices":[{"name":"Your Move (ST3)","postcode":"ST3 2NS","lat":52.9878,"lng":-2.13667,"rep_score":74.0,"rating":4.59,"total_reviews":147,"reply_rate":null,"rag":"AMBER","office_id":254452},{"name":"Your Move Longton","postcode":"ST3 1BS","lat":52.988223,"lng":-2.133683,"rep_score":75.0,"rating":4.64,"total_reviews":83,"reply_rate":null,"rag":"AMBER","office_id":15150}]},"SW17":{"office_count":1,"total_reviews":11,"avg_rep_score":49.0,"avg_rating":4.64,"avg_reply_rate":null,"rag_breakdown":{"RED":1},"offices":[{"name":"Your Move (SW17)","postcode":"SW17 7TS","lat":51.435207,"lng":-0.160201,"rep_score":49.0,"rating":4.64,"total_reviews":11,"reply_rate":null,"rag":"RED","office_id":15424}]},"TN12":{"office_count":1,"total_reviews":10,"avg_rep_score":45.0,"avg_rating":5.0,"avg_reply_rate":null,"rag_breakdown":{"RED":1},"offices":[{"name":"Your Move (TN12)","postcode":"TN12 6DS","lat":51.17934,"lng":0.387008,"rep_score":45.0,"rating":5.0,"total_reviews":10,"reply_rate":null,"rag":"RED","office_id":16122}]},"TN2":{"office_count":1,"total_reviews":5,"avg_rep_score":45.0,"avg_rating":5.0,"avg_reply_rate":null,"rag_breakdown":{"RED":1},"offices":[{"name":"Your Move (TN2)","postcode":"TN2 4NY","lat":51.143054,"lng":0.320283,"rep_score":45.0,"rating":5.0,"total_reviews":5,"reply_rate":null,"rag":"RED","office_id":16178}]},"TN24":{"office_count":2,"total_reviews":359,"avg_rep_score":77.0,"avg_rating":4.56,"avg_reply_rate":100.0,"rag_breakdown":{"GREEN":2},"offices":[{"name":"Your Move (TN24)","postcode":"TN24 8SF","lat":51.149,"lng":0.872356,"rep_score":74.0,"rating":4.56,"total_reviews":170,"reply_rate":100.0,"rag":"GREEN","office_id":254453},{"name":"Your Move Ashford","postcode":"TN24 8SG","lat":51.148929,"lng":0.872876,"rep_score":80.0,"rating":4.56,"total_reviews":189,"reply_rate":100.0,"rag":"GREEN","office_id":16215}]},"TW15":{"office_count":1,"total_reviews":185,"avg_rep_score":80.0,"avg_rating":4.57,"avg_reply_rate":100.0,"rag_breakdown":{"GREEN":1},"offices":[{"name":"Your Move (TW15)","postcode":"TW15 2UY","lat":51.434044,"lng":-0.464729,"rep_score":80.0,"rating":4.57,"total_reviews":185,"reply_rate":100.0,"rag":"GREEN","office_id":16722}]},"TW17":{"office_count":1,"total_reviews":4,"avg_rep_score":13.0,"avg_rating":2.5,"avg_reply_rate":null,"rag_breakdown":{"RED":1},"offices":[{"name":"Your Move (TW17)","postcode":"TW17 9BB","lat":51.392355,"lng":-0.449035,"rep_score":13.0,"rating":2.5,"total_reviews":4,"reply_rate":null,"rag":"RED","office_id":16739}]},"TW20":{"office_count":2,"total_reviews":611,"avg_rep_score":75.0,"avg_rating":4.1,"avg_reply_rate":100.0,"rag_breakdown":{"GREEN":2},"offices":[{"name":"Your Move (TW20)","postcode":"TW20 9EW","lat":51.431899,"lng":-0.548383,"rep_score":78.0,"rating":4.08,"total_reviews":337,"reply_rate":100.0,"rag":"GREEN","office_id":16774},{"name":"Your Move Egham","postcode":"TW20 9LB","lat":51.430316,"lng":-0.547652,"rep_score":72.0,"rating":4.12,"total_reviews":274,"reply_rate":100.0,"rag":"GREEN","office_id":243996}]},"WA7":{"office_count":1,"total_reviews":12,"avg_rep_score":70.0,"avg_rating":5.0,"avg_reply_rate":null,"rag_breakdown":{"AMBER":1},"offices":[{"name":"Your Move (WA7)","postcode":"WA7 1LR","lat":53.342569,"lng":-2.732454,"rep_score":70.0,"rating":5.0,"total_reviews":12,"reply_rate":null,"rag":"AMBER","office_id":17625}]},"WD25":{"office_count":1,"total_reviews":9,"avg_rep_score":32.0,"avg_rating":3.89,"avg_reply_rate":null,"rag_breakdown":{"RED":1},"offices":[{"name":"Your Move (WD25)","postcode":"WD25 9FL","lat":51.689049,"lng":-0.386776,"rep_score":32.0,"rating":3.89,"total_reviews":9,"reply_rate":null,"rag":"RED","office_id":17719}]},"WD5":{"office_count":1,"total_reviews":17,"avg_rep_score":67.0,"avg_rating":4.29,"avg_reply_rate":null,"rag_breakdown":{"AMBER":1},"offices":[{"name":"Your Move (WD5)","postcode":"WD5 0AR","lat":51.706413,"lng":-0.417217,"rep_score":67.0,"rating":4.29,"total_reviews":17,"reply_rate":null,"rag":"AMBER","office_id":17743}]},"WR1":{"office_count":1,"total_reviews":10,"avg_rep_score":45.0,"avg_rating":4.6,"avg_reply_rate":null,"rag_breakdown":{"RED":1},"offices":[{"name":"Your Move (WR1)","postcode":"WR1 1EB","lat":52.194328,"lng":-2.221827,"rep_score":45.0,"rating":4.6,"total_reviews":10,"reply_rate":null,"rag":"RED","office_id":17902}]},"WR9":{"office_count":1,"total_reviews":10,"avg_rep_score":44.0,"avg_rating":4.6,"avg_reply_rate":null,"rag_breakdown":{"RED":1},"offices":[{"name":"Your Move (WR9)","postcode":"WR9 8QT","lat":52.266928,"lng":-2.151325,"rep_score":44.0,"rating":4.6,"total_reviews":10,"reply_rate":null,"rag":"RED","office_id":22259}]},"SE2":{"office_count":1,"total_reviews":147,"avg_rep_score":76.0,"avg_rating":4.48,"avg_reply_rate":50.0,"rag_breakdown":{"GREEN":1},"offices":[{"name":"Your Move Abbey Wood","postcode":"SE2 9RH","lat":51.4903,"lng":0.121127,"rep_score":76.0,"rating":4.48,"total_reviews":147,"reply_rate":50.0,"rag":"GREEN","office_id":13797}]},"SP10":{"office_count":1,"total_reviews":120,"avg_rep_score":75.0,"avg_rating":4.14,"avg_reply_rate":100.0,"rag_breakdown":{"GREEN":1},"offices":[{"name":"Your Move Andover","postcode":"SP10 2NU","lat":51.206358,"lng":-1.477618,"rep_score":75.0,"rating":4.14,"total_reviews":120,"reply_rate":100.0,"rag":"GREEN","office_id":14891}]},"DE56":{"office_count":1,"total_reviews":215,"avg_rep_score":72.0,"avg_rating":4.35,"avg_reply_rate":null,"rag_breakdown":{"RED":1},"offices":[{"name":"Your Move Attenborough & Co","postcode":"DE56 1AX","lat":53.024226,"lng":-1.484547,"rep_score":72.0,"rating":4.35,"total_reviews":215,"reply_rate":null,"rag":"RED","office_id":259196}]},"S70":{"office_count":1,"total_reviews":280,"avg_rep_score":81.0,"avg_rating":4.6,"avg_reply_rate":100.0,"rag_breakdown":{"GREEN":1},"offices":[{"name":"Your Move Barnsley","postcode":"S70 2JR","lat":53.552796,"lng":-1.480338,"rep_score":81.0,"rating":4.6,"total_reviews":280,"reply_rate":100.0,"rag":"GREEN","office_id":13381}]},"MK40":{"office_count":1,"total_reviews":50,"avg_rep_score":70.0,"avg_rating":4.22,"avg_reply_rate":null,"rag_breakdown":{"AMBER":1},"offices":[{"name":"Your Move Bedford","postcode":"MK40 1LN","lat":52.13798,"lng":-0.470015,"rep_score":70.0,"rating":4.22,"total_reviews":50,"reply_rate":null,"rag":"AMBER","office_id":9492}]},"LE8":{"office_count":1,"total_reviews":156,"avg_rep_score":80.0,"avg_rating":4.82,"avg_reply_rate":60.0,"rag_breakdown":{"GREEN":1},"offices":[{"name":"Your Move Blaby","postcode":"LE8 4FZ","lat":52.57609,"lng":-1.163593,"rep_score":80.0,"rating":4.82,"total_reviews":156,"reply_rate":60.0,"rag":"GREEN","office_id":8511}]},"SE3":{"office_count":1,"total_reviews":126,"avg_rep_score":72.0,"avg_rating":4.49,"avg_reply_rate":100.0,"rag_breakdown":{"GREEN":1},"offices":[{"name":"Your Move Blackheath","postcode":"SE3 7DH","lat":51.478,"lng":0.018983,"rep_score":72.0,"rating":4.49,"total_reviews":126,"reply_rate":100.0,"rag":"GREEN","office_id":13902}]},"PO21":{"office_count":1,"total_reviews":438,"avg_rep_score":81.0,"avg_rating":4.61,"avg_reply_rate":50.0,"rag_breakdown":{"GREEN":1},"offices":[{"name":"Your Move Bognor Regis","postcode":"PO21 1RW","lat":50.783249,"lng":-0.673009,"rep_score":81.0,"rating":4.61,"total_reviews":438,"reply_rate":50.0,"rag":"GREEN","office_id":12351}]},"G71":{"office_count":1,"total_reviews":44,"avg_rep_score":68.0,"avg_rating":4.61,"avg_reply_rate":null,"rag_breakdown":{"AMBER":1},"offices":[{"name":"Your Move Bothwell","postcode":"G71 8RG","lat":55.822635,"lng":-4.074961,"rep_score":68.0,"rating":4.61,"total_reviews":44,"reply_rate":null,"rag":"AMBER","office_id":243989}]},"CT10":{"office_count":1,"total_reviews":123,"avg_rep_score":72.0,"avg_rating":4.74,"avg_reply_rate":100.0,"rag_breakdown":{"GREEN":1},"offices":[{"name":"Your Move Broadstairs","postcode":"CT10 1JB","lat":51.359872,"lng":1.436547,"rep_score":72.0,"rating":4.74,"total_reviews":123,"reply_rate":100.0,"rag":"GREEN","office_id":3431}]},"DE14":{"office_count":1,"total_reviews":256,"avg_rep_score":76.0,"avg_rating":4.67,"avg_reply_rate":60.0,"rag_breakdown":{"GREEN":1},"offices":[{"name":"Your Move Burton On Trent","postcode":"DE14 1JE","lat":52.802739,"lng":-1.629566,"rep_score":76.0,"rating":4.67,"total_reviews":256,"reply_rate":60.0,"rag":"GREEN","office_id":4047}]},"TR14":{"office_count":1,"total_reviews":424,"avg_rep_score":75.0,"avg_rating":4.73,"avg_reply_rate":null,"rag_breakdown":{"RED":1},"offices":[{"name":"Your Move Cambourne","postcode":"TR14 8JY","lat":50.213356,"lng":-5.300655,"rep_score":75.0,"rating":4.73,"total_reviews":424,"reply_rate":null,"rag":"RED","office_id":16512}]},"RM6":{"office_count":1,"total_reviews":630,"avg_rep_score":75.0,"avg_rating":4.73,"avg_reply_rate":null,"rag_breakdown":{"RED":1},"offices":[{"name":"Your Move Chadwell Heath","postcode":"RM6 6QJ","lat":51.571197,"lng":0.131732,"rep_score":75.0,"rating":4.73,"total_reviews":630,"reply_rate":null,"rag":"RED","office_id":13200}]},"S35":{"office_count":1,"total_reviews":429,"avg_rep_score":79.0,"avg_rating":4.7,"avg_reply_rate":60.6,"rag_breakdown":{"GREEN":1},"offices":[{"name":"Your Move Chapeltown","postcode":"S35 2UW","lat":53.462082,"lng":-1.46548,"rep_score":79.0,"rating":4.7,"total_reviews":429,"reply_rate":60.60606060606061,"rag":"GREEN","office_id":13291}]},"ME4":{"office_count":1,"total_reviews":41,"avg_rep_score":72.0,"avg_rating":4.61,"avg_reply_rate":null,"rag_breakdown":{"AMBER":1},"offices":[{"name":"Your Move Chatham","postcode":"ME4 4JA","lat":51.3837,"lng":0.524439,"rep_score":72.0,"rating":4.61,"total_reviews":41,"reply_rate":null,"rag":"AMBER","office_id":9359}]},"LE67":{"office_count":1,"total_reviews":106,"avg_rep_score":79.0,"avg_rating":4.61,"avg_reply_rate":null,"rag_breakdown":{"AMBER":1},"offices":[{"name":"Your Move Coalville","postcode":"LE67 3PE","lat":52.724763,"lng":-1.374754,"rep_score":79.0,"rating":4.61,"total_reviews":106,"reply_rate":null,"rag":"AMBER","office_id":8488}]},"KY11":{"office_count":1,"total_reviews":230,"avg_rep_score":75.0,"avg_rating":4.82,"avg_reply_rate":92.3,"rag_breakdown":{"GREEN":1},"offices":[{"name":"Your Move Dalgety Bay","postcode":"KY11 9YD","lat":56.037009,"lng":-3.356627,"rep_score":75.0,"rating":4.82,"total_reviews":230,"reply_rate":92.3076923076923,"rag":"GREEN","office_id":8010}]},"EH22":{"office_count":1,"total_reviews":270,"avg_rep_score":73.0,"avg_rating":4.82,"avg_reply_rate":66.7,"rag_breakdown":{"GREEN":1},"offices":[{"name":"Your Move Dalkeith","postcode":"EH22 1JA","lat":55.894497,"lng":-3.070331,"rep_score":73.0,"rating":4.82,"total_reviews":270,"reply_rate":66.66666666666666,"rag":"GREEN","office_id":5194}]},"DL3":{"office_count":1,"total_reviews":323,"avg_rep_score":75.0,"avg_rating":4.6,"avg_reply_rate":96.8,"rag_breakdown":{"GREEN":1},"offices":[{"name":"Your Move Darlington","postcode":"DL3 7RU","lat":54.525269,"lng":-1.557909,"rep_score":75.0,"rating":4.6,"total_reviews":323,"reply_rate":96.7741935483871,"rag":"GREEN","office_id":227360}]},"CT14":{"office_count":1,"total_reviews":16,"avg_rep_score":45.0,"avg_rating":4.0,"avg_reply_rate":null,"rag_breakdown":{"RED":1},"offices":[{"name":"Your Move Deal","postcode":"CT14 6HE","lat":51.2238,"lng":1.40299,"rep_score":45.0,"rating":4.0,"total_reviews":16,"reply_rate":null,"rag":"RED","office_id":3467}]},"DY1":{"office_count":1,"total_reviews":474,"avg_rep_score":76.0,"avg_rating":4.61,"avg_reply_rate":100.0,"rag_breakdown":{"GREEN":1},"offices":[{"name":"Your Move Dudley","postcode":"DY1 1PB","lat":52.510025,"lng":-2.083602,"rep_score":76.0,"rating":4.61,"total_reviews":474,"reply_rate":100.0,"rag":"GREEN","office_id":4540}]},"DG1":{"office_count":1,"total_reviews":202,"avg_rep_score":75.0,"avg_rating":4.68,"avg_reply_rate":92.9,"rag_breakdown":{"GREEN":1},"offices":[{"name":"Your Move Dumfries","postcode":"DG1 1EX","lat":55.068595,"lng":-3.609877,"rep_score":75.0,"rating":4.68,"total_reviews":202,"reply_rate":92.85714285714286,"rag":"GREEN","office_id":4150}]},"DD1":{"office_count":1,"total_reviews":336,"avg_rep_score":75.0,"avg_rating":4.59,"avg_reply_rate":91.7,"rag_breakdown":{"GREEN":1},"offices":[{"name":"Your Move Dundee","postcode":"DD1 4AU","lat":56.459227,"lng":-2.969165,"rep_score":75.0,"rating":4.59,"total_reviews":336,"reply_rate":91.66666666666666,"rag":"GREEN","office_id":3968}]},"KY12":{"office_count":1,"total_reviews":215,"avg_rep_score":75.0,"avg_rating":4.82,"avg_reply_rate":90.9,"rag_breakdown":{"GREEN":1},"offices":[{"name":"Your Move Dunfermline","postcode":"KY12 7EA","lat":56.071004,"lng":-3.458836,"rep_score":75.0,"rating":4.82,"total_reviews":215,"reply_rate":90.9090909090909,"rag":"GREEN","office_id":8014}]},"IV30":{"office_count":1,"total_reviews":309,"avg_rep_score":75.0,"avg_rating":4.75,"avg_reply_rate":76.9,"rag_breakdown":{"GREEN":1},"offices":[{"name":"Your Move Elgin","postcode":"IV30 1EE","lat":57.649076,"lng":-3.312089,"rep_score":75.0,"rating":4.75,"total_reviews":309,"reply_rate":76.92307692307693,"rag":"GREEN","office_id":7618}]},"SE9":{"office_count":1,"total_reviews":215,"avg_rep_score":81.0,"avg_rating":4.83,"avg_reply_rate":60.0,"rag_breakdown":{"GREEN":1},"offices":[{"name":"Your Move Eltham","postcode":"SE9 6SF","lat":51.4516,"lng":0.052405,"rep_score":81.0,"rating":4.83,"total_reviews":215,"reply_rate":60.0,"rag":"GREEN","office_id":13980}]},"FK1":{"office_count":1,"total_reviews":443,"avg_rep_score":75.0,"avg_rating":4.79,"avg_reply_rate":92.0,"rag_breakdown":{"GREEN":1},"offices":[{"name":"Your Move Falkirk","postcode":"FK1 1NB","lat":56.000062,"lng":-3.783438,"rep_score":75.0,"rating":4.79,"total_reviews":443,"reply_rate":92.0,"rag":"GREEN","office_id":5687}]},"ME13":{"office_count":1,"total_reviews":4,"avg_rep_score":45.0,"avg_rating":4.75,"avg_reply_rate":null,"rag_breakdown":{"RED":1},"offices":[{"name":"Your Move Faversham","postcode":"ME13 7AG","lat":51.316,"lng":0.89097,"rep_score":45.0,"rating":4.75,"total_reviews":4,"reply_rate":null,"rag":"RED","office_id":9278}]},"ML11":{"office_count":1,"total_reviews":252,"avg_rep_score":71.0,"avg_rating":4.45,"avg_reply_rate":65.4,"rag_breakdown":{"GREEN":1},"offices":[{"name":"Your Move First, Lanark","postcode":"ML11 7AB","lat":55.673994,"lng":-3.774851,"rep_score":71.0,"rating":4.45,"total_reviews":252,"reply_rate":65.38461538461539,"rag":"GREEN","office_id":260092}]},"ME7":{"office_count":1,"total_reviews":52,"avg_rep_score":64.0,"avg_rating":4.27,"avg_reply_rate":null,"rag_breakdown":{"AMBER":1},"offices":[{"name":"Your Move Gillingham","postcode":"ME7 4PD","lat":51.3864,"lng":0.551334,"rep_score":64.0,"rating":4.27,"total_reviews":52,"reply_rate":null,"rag":"AMBER","office_id":9386}]},"KY7":{"office_count":1,"total_reviews":200,"avg_rep_score":75.0,"avg_rating":4.78,"avg_reply_rate":100.0,"rag_breakdown":{"GREEN":1},"offices":[{"name":"Your Move Glenrothes","postcode":"KY7 5NA","lat":56.196572,"lng":-3.168418,"rep_score":75.0,"rating":4.78,"total_reviews":200,"reply_rate":100.0,"rag":"GREEN","office_id":8048}]},"DN14":{"office_count":1,"total_reviews":598,"avg_rep_score":76.0,"avg_rating":4.91,"avg_reply_rate":100.0,"rag_breakdown":{"GREEN":1},"offices":[{"name":"Your Move Goole","postcode":"DN14 6BP","lat":53.705994,"lng":-0.875336,"rep_score":76.0,"rating":4.91,"total_reviews":598,"reply_rate":100.0,"rag":"GREEN","office_id":4378}]},"TN34":{"office_count":1,"total_reviews":151,"avg_rep_score":75.0,"avg_rating":4.9,"avg_reply_rate":50.0,"rag_breakdown":{"GREEN":1},"offices":[{"name":"Your Move Hastings","postcode":"TN34 1BE","lat":50.8566,"lng":0.578616,"rep_score":75.0,"rating":4.9,"total_reviews":151,"reply_rate":50.0,"rag":"GREEN","office_id":16272}]},"LE10":{"office_count":1,"total_reviews":196,"avg_rep_score":79.0,"avg_rating":4.71,"avg_reply_rate":null,"rag_breakdown":{"AMBER":1},"offices":[{"name":"Your Move Hinckley","postcode":"LE10 1DD","lat":52.542152,"lng":-1.367929,"rep_score":79.0,"rating":4.71,"total_reviews":196,"reply_rate":null,"rag":"AMBER","office_id":8341}]},"SG5":{"office_count":1,"total_reviews":166,"avg_rep_score":78.0,"avg_rating":4.33,"avg_reply_rate":100.0,"rag_breakdown":{"GREEN":1},"offices":[{"name":"Your Move Hitchin","postcode":"SG5 1DB","lat":51.949093,"lng":-0.27524,"rep_score":78.0,"rating":4.33,"total_reviews":166,"reply_rate":100.0,"rag":"GREEN","office_id":14056}]},"ME3":{"office_count":1,"total_reviews":53,"avg_rep_score":78.0,"avg_rating":4.83,"avg_reply_rate":null,"rag_breakdown":{"AMBER":1},"offices":[{"name":"Your Move Hoo","postcode":"ME3 9AA","lat":51.42,"lng":0.560614,"rep_score":78.0,"rating":4.83,"total_reviews":53,"reply_rate":null,"rag":"AMBER","office_id":9353}]},"RM12":{"office_count":1,"total_reviews":27,"avg_rep_score":66.0,"avg_rating":4.56,"avg_reply_rate":null,"rag_breakdown":{"AMBER":1},"offices":[{"name":"Your Move Hornchurch","postcode":"RM12 6LL","lat":51.554994,"lng":0.21998,"rep_score":66.0,"rating":4.56,"total_reviews":27,"reply_rate":null,"rag":"AMBER","office_id":243997}]},"DH4":{"office_count":1,"total_reviews":138,"avg_rep_score":75.0,"avg_rating":4.85,"avg_reply_rate":100.0,"rag_breakdown":{"GREEN":1},"offices":[{"name":"Your Move Houghton le Spring","postcode":"DH4 4DJ","lat":54.841249,"lng":-1.469827,"rep_score":75.0,"rating":4.85,"total_reviews":138,"reply_rate":100.0,"rag":"GREEN","office_id":4228}]},"DE7":{"office_count":1,"total_reviews":247,"avg_rep_score":75.0,"avg_rating":4.55,"avg_reply_rate":100.0,"rag_breakdown":{"GREEN":1},"offices":[{"name":"Your Move Ilkeston","postcode":"DE7 8AH","lat":52.972735,"lng":-1.309041,"rep_score":75.0,"rating":4.55,"total_reviews":247,"reply_rate":100.0,"rag":"GREEN","office_id":4125}]},"IV1":{"office_count":1,"total_reviews":145,"avg_rep_score":74.0,"avg_rating":4.61,"avg_reply_rate":100.0,"rag_breakdown":{"GREEN":1},"offices":[{"name":"Your Move Inverness","postcode":"IV1 1LP","lat":57.479893,"lng":-4.225531,"rep_score":74.0,"rating":4.61,"total_reviews":145,"reply_rate":100.0,"rag":"GREEN","office_id":227342}]},"LU6":{"office_count":1,"total_reviews":106,"avg_rep_score":58.0,"avg_rating":3.89,"avg_reply_rate":55.0,"rag_breakdown":{"AMBER":1},"offices":[{"name":"Your Move Jameson Owen","postcode":"LU6 1LA","lat":51.887018,"lng":-0.521925,"rep_score":58.0,"rating":3.89,"total_reviews":106,"reply_rate":55.00000000000001,"rag":"AMBER","office_id":259041}]},"NG17":{"office_count":1,"total_reviews":292,"avg_rep_score":72.0,"avg_rating":4.37,"avg_reply_rate":55.0,"rag_breakdown":{"GREEN":1},"offices":[{"name":"Your Move Kirkby-in-Ashfield","postcode":"NG17 7AP","lat":53.098818,"lng":-1.245163,"rep_score":72.0,"rating":4.37,"total_reviews":292,"reply_rate":55.00000000000001,"rag":"GREEN","office_id":258054}]},"WV1":{"office_count":2,"total_reviews":113,"avg_rep_score":66.0,"avg_rating":4.12,"avg_reply_rate":55.0,"rag_breakdown":{"AMBER":2},"offices":[{"name":"Your Move Land & New Homes - West Midlands","postcode":"WV1 4BL","lat":52.5865,"lng":-2.13204,"rep_score":57.0,"rating":3.97,"total_reviews":36,"reply_rate":55.00000000000001,"rag":"AMBER","office_id":258448},{"name":"Your Move Wolverhampton","postcode":"WV1 4DJ","lat":52.586879,"lng":-2.132781,"rep_score":75.0,"rating":4.27,"total_reviews":77,"reply_rate":null,"rag":"AMBER","office_id":18055}]},"LE1":{"office_count":1,"total_reviews":381,"avg_rep_score":82.0,"avg_rating":4.66,"avg_reply_rate":100.0,"rag_breakdown":{"GREEN":1},"offices":[{"name":"Your Move Leicester","postcode":"LE1 1JB","lat":52.63481,"lng":-1.13072,"rep_score":82.0,"rating":4.66,"total_reviews":381,"reply_rate":100.0,"rag":"GREEN","office_id":8320}]},"EH6":{"office_count":1,"total_reviews":137,"avg_rep_score":73.0,"avg_rating":4.73,"avg_reply_rate":100.0,"rag_breakdown":{"GREEN":1},"offices":[{"name":"Your Move Leith Walk","postcode":"EH6 8PD","lat":55.965491,"lng":-3.175749,"rep_score":73.0,"rating":4.73,"total_reviews":137,"reply_rate":100.0,"rag":"GREEN","office_id":5311}]},"PO7":{"office_count":2,"total_reviews":415,"avg_rep_score":74.0,"avg_rating":4.89,"avg_reply_rate":null,"rag_breakdown":{"RED":2},"offices":[{"name":"Your Move Lettings","postcode":"PO7 7EX","lat":50.8782,"lng":-1.034041,"rep_score":74.0,"rating":4.89,"total_reviews":233,"reply_rate":null,"rag":"RED","office_id":254480},{"name":"Your Move Waterlooville","postcode":"PO7 7EL","lat":50.879052,"lng":-1.032927,"rep_score":74.0,"rating":4.89,"total_reviews":182,"reply_rate":null,"rag":"RED","office_id":243995}]},"LN2":{"office_count":1,"total_reviews":181,"avg_rep_score":62.0,"avg_rating":3.98,"avg_reply_rate":100.0,"rag_breakdown":{"AMBER":1},"offices":[{"name":"Your Move Lincoln","postcode":"LN2 1EH","lat":53.230025,"lng":-0.538515,"rep_score":62.0,"rating":3.98,"total_reviews":181,"reply_rate":100.0,"rag":"AMBER","office_id":22249}]},"DA3":{"office_count":1,"total_reviews":10,"avg_rep_score":42.0,"avg_rating":4.1,"avg_reply_rate":null,"rag_breakdown":{"RED":1},"offices":[{"name":"Your Move Longfield","postcode":"DA3 7QA","lat":51.3964,"lng":0.300735,"rep_score":42.0,"rating":4.1,"total_reviews":10,"reply_rate":null,"rag":"RED","office_id":3920}]},"LE11":{"office_count":1,"total_reviews":105,"avg_rep_score":78.0,"avg_rating":4.6,"avg_reply_rate":null,"rag_breakdown":{"AMBER":1},"offices":[{"name":"Your Move Loughborough","postcode":"LE11 1TH","lat":52.772155,"lng":-1.204681,"rep_score":78.0,"rating":4.6,"total_reviews":105,"reply_rate":null,"rag":"AMBER","office_id":8348}]},"NE9":{"office_count":1,"total_reviews":53,"avg_rep_score":76.0,"avg_rating":4.43,"avg_reply_rate":null,"rag_breakdown":{"AMBER":1},"offices":[{"name":"Your Move Low Fell","postcode":"NE9 5EX","lat":54.936578,"lng":-1.599305,"rep_score":76.0,"rating":4.43,"total_reviews":53,"reply_rate":null,"rag":"AMBER","office_id":10325}]},"ME14":{"office_count":1,"total_reviews":54,"avg_rep_score":72.0,"avg_rating":4.17,"avg_reply_rate":null,"rag_breakdown":{"AMBER":1},"offices":[{"name":"Your Move Maidstone","postcode":"ME14 1DW","lat":51.2932,"lng":0.573647,"rep_score":72.0,"rating":4.17,"total_reviews":54,"reply_rate":null,"rag":"AMBER","office_id":9291}]},"M34":{"office_count":1,"total_reviews":229,"avg_rep_score":76.0,"avg_rating":4.35,"avg_reply_rate":null,"rag_breakdown":{"RED":1},"offices":[{"name":"Your Move Mary Ashton, Denton","postcode":"M34 3JU","lat":53.456021,"lng":-2.115408,"rep_score":76.0,"rating":4.35,"total_reviews":229,"reply_rate":null,"rag":"RED","office_id":257876}]},"DD10":{"office_count":1,"total_reviews":105,"avg_rep_score":73.0,"avg_rating":4.77,"avg_reply_rate":100.0,"rag_breakdown":{"GREEN":1},"offices":[{"name":"Your Move Montrose","postcode":"DD10 8JZ","lat":56.714732,"lng":-2.467426,"rep_score":73.0,"rating":4.77,"total_reviews":105,"reply_rate":100.0,"rag":"GREEN","office_id":3975}]},"B36":{"office_count":1,"total_reviews":1093,"avg_rep_score":72.0,"avg_rating":4.22,"avg_reply_rate":55.0,"rag_breakdown":{"GREEN":1},"offices":[{"name":"Your Move Murray Rogers, Bromwich","postcode":"B36 0JE","lat":52.501331,"lng":-1.767365,"rep_score":72.0,"rating":4.22,"total_reviews":1093,"reply_rate":55.00000000000001,"rag":"GREEN","office_id":257828}]},"B33":{"office_count":1,"total_reviews":307,"avg_rep_score":71.0,"avg_rating":4.43,"avg_reply_rate":55.0,"rag_breakdown":{"GREEN":1},"offices":[{"name":"Your Move Murray Rogers, Stechford","postcode":"B33 8BA","lat":52.484273,"lng":-1.81035,"rep_score":71.0,"rating":4.43,"total_reviews":307,"reply_rate":55.00000000000001,"rag":"GREEN","office_id":257829}]},"SE14":{"office_count":1,"total_reviews":283,"avg_rep_score":75.0,"avg_rating":4.59,"avg_reply_rate":42.9,"rag_breakdown":{"AMBER":1},"offices":[{"name":"Your Move New Cross","postcode":"SE14 5DG","lat":51.4749,"lng":-0.046357,"rep_score":75.0,"rating":4.59,"total_reviews":283,"reply_rate":42.857142857142854,"rag":"AMBER","office_id":13707}]},"TQ12":{"office_count":1,"total_reviews":783,"avg_rep_score":81.0,"avg_rating":4.71,"avg_reply_rate":100.0,"rag_breakdown":{"GREEN":1},"offices":[{"name":"Your Move Newton Abbot","postcode":"TQ12 2QL","lat":50.530434,"lng":-3.610343,"rep_score":81.0,"rating":4.71,"total_reviews":783,"reply_rate":100.0,"rag":"GREEN","office_id":16375}]},"LN6":{"office_count":1,"total_reviews":92,"avg_rep_score":62.0,"avg_rating":3.84,"avg_reply_rate":null,"rag_breakdown":{"AMBER":1},"offices":[{"name":"Your Move North Hykeham","postcode":"LN6 8HW","lat":53.194111,"lng":-0.580197,"rep_score":62.0,"rating":3.84,"total_reviews":92,"reply_rate":null,"rag":"AMBER","office_id":22253}]},"DA8":{"office_count":1,"total_reviews":93,"avg_rep_score":70.0,"avg_rating":4.71,"avg_reply_rate":null,"rag_breakdown":{"RED":1},"offices":[{"name":"Your Move Northumberland Heath","postcode":"DA8 3EX","lat":51.473326,"lng":0.162763,"rep_score":70.0,"rating":4.71,"total_reviews":93,"reply_rate":null,"rag":"RED","office_id":3955}]},"NR1":{"office_count":1,"total_reviews":90,"avg_rep_score":68.0,"avg_rating":4.64,"avg_reply_rate":null,"rag_breakdown":{"AMBER":1},"offices":[{"name":"Your Move Norwich","postcode":"NR1 4AB","lat":52.636811,"lng":1.326634,"rep_score":68.0,"rating":4.64,"total_reviews":90,"reply_rate":null,"rag":"AMBER","office_id":10869}]},"CV11":{"office_count":1,"total_reviews":219,"avg_rep_score":81.0,"avg_rating":4.6,"avg_reply_rate":100.0,"rag_breakdown":{"GREEN":1},"offices":[{"name":"Your Move Nuneaton","postcode":"CV11 4EU","lat":52.523551,"lng":-1.466415,"rep_score":81.0,"rating":4.6,"total_reviews":219,"reply_rate":100.0,"rag":"GREEN","office_id":3613}]},"NR34":{"office_count":1,"total_reviews":252,"avg_rep_score":73.0,"avg_rating":4.39,"avg_reply_rate":44.0,"rag_breakdown":{"AMBER":1},"offices":[{"name":"Your Move Oliver James, Beccles","postcode":"NR34 9HD","lat":52.4575,"lng":1.56245,"rep_score":73.0,"rating":4.39,"total_reviews":252,"reply_rate":44.0,"rag":"AMBER","office_id":260081}]},"SY11":{"office_count":1,"total_reviews":178,"avg_rep_score":76.0,"avg_rating":4.79,"avg_reply_rate":40.0,"rag_breakdown":{"AMBER":1},