{"brand":"NEA","slug":"nea","outcode_count":32,"office_count":34,"metrics":{"LS18":{"office_count":1,"total_reviews":2241,"avg_rep_score":76.0,"avg_rating":4.74,"avg_reply_rate":47.5,"rag_breakdown":{"AMBER":1},"offices":[{"name":"Manning Stainton (LS18)","postcode":"LS18 4QD","lat":53.832,"lng":-1.64202,"rep_score":76.0,"rating":4.74,"total_reviews":2241,"reply_rate":47.524752475247524,"rag":"AMBER","office_id":251848}]},"LS16":{"office_count":1,"total_reviews":166,"avg_rep_score":75.0,"avg_rating":4.94,"avg_reply_rate":73.9,"rag_breakdown":{"GREEN":1},"offices":[{"name":"Manning Stainton Adel","postcode":"LS16 7NR","lat":53.855,"lng":-1.59156,"rep_score":75.0,"rating":4.94,"total_reviews":166,"reply_rate":73.91304347826086,"rag":"GREEN","office_id":244000}]},"LS11":{"office_count":1,"total_reviews":132,"avg_rep_score":75.0,"avg_rating":4.82,"avg_reply_rate":87.5,"rag_breakdown":{"GREEN":1},"offices":[{"name":"Manning Stainton Beeston","postcode":"LS11 7HX","lat":53.7741,"lng":-1.56358,"rep_score":75.0,"rating":4.82,"total_reviews":132,"reply_rate":87.5,"rag":"GREEN","office_id":244001}]},"LS15":{"office_count":1,"total_reviews":191,"avg_rep_score":75.0,"avg_rating":4.88,"avg_reply_rate":80.0,"rag_breakdown":{"GREEN":1},"offices":[{"name":"Manning Stainton Crossgates","postcode":"LS15 8DX","lat":53.8072,"lng":-1.45006,"rep_score":75.0,"rating":4.88,"total_reviews":191,"reply_rate":80.0,"rag":"GREEN","office_id":244002}]},"LS25":{"office_count":1,"total_reviews":130,"avg_rep_score":74.0,"avg_rating":4.94,"avg_reply_rate":66.7,"rag_breakdown":{"GREEN":1},"offices":[{"name":"Manning Stainton Garforth","postcode":"LS25 1AA","lat":53.7949,"lng":-1.388,"rep_score":74.0,"rating":4.94,"total_reviews":130,"reply_rate":66.66666666666666,"rag":"GREEN","office_id":244003}]},"LS20":{"office_count":1,"total_reviews":124,"avg_rep_score":74.0,"avg_rating":4.84,"avg_reply_rate":50.0,"rag_breakdown":{"GREEN":1},"offices":[{"name":"Manning Stainton Guiseley","postcode":"LS20 9BT","lat":53.872,"lng":-1.70706,"rep_score":74.0,"rating":4.84,"total_reviews":124,"reply_rate":50.0,"rag":"GREEN","office_id":8790}]},"LS6":{"office_count":1,"total_reviews":180,"avg_rep_score":75.0,"avg_rating":4.86,"avg_reply_rate":57.1,"rag_breakdown":{"GREEN":1},"offices":[{"name":"Manning Stainton Headingley","postcode":"LS6 2AD","lat":53.8208,"lng":-1.57703,"rep_score":75.0,"rating":4.86,"total_reviews":180,"reply_rate":57.14285714285714,"rag":"GREEN","office_id":8867}]},"LS17":{"office_count":2,"total_reviews":2225,"avg_rep_score":78.0,"avg_rating":4.71,"avg_reply_rate":57.7,"rag_breakdown":{"GREEN":1,"AMBER":1},"offices":[{"name":"Manning Stainton Moortown","postcode":"LS17 6DR","lat":53.8449,"lng":-1.53257,"rep_score":80.0,"rating":4.7,"total_reviews":166,"reply_rate":80.0,"rag":"GREEN","office_id":8764},{"name":"Manning Stainton Moortown Lettings","postcode":"LS17 6RE","lat":53.8441,"lng":-1.5325,"rep_score":76.0,"rating":4.72,"total_reviews":2059,"reply_rate":35.483870967741936,"rag":"AMBER","office_id":241635}]},"LS27":{"office_count":1,"total_reviews":336,"avg_rep_score":75.0,"avg_rating":4.51,"avg_reply_rate":66.7,"rag_breakdown":{"GREEN":1},"offices":[{"name":"Manning Stainton Morley","postcode":"LS27 9BR","lat":53.7465,"lng":-1.60231,"rep_score":75.0,"rating":4.51,"total_reviews":336,"reply_rate":66.66666666666666,"rag":"GREEN","office_id":8832}]},"LS8":{"office_count":1,"total_reviews":388,"avg_rep_score":76.0,"avg_rating":4.95,"avg_reply_rate":60.0,"rag_breakdown":{"GREEN":1},"offices":[{"name":"Manning Stainton Oakwood","postcode":"LS8 4BA","lat":53.8265,"lng":-1.5068,"rep_score":76.0,"rating":4.95,"total_reviews":388,"reply_rate":60.0,"rag":"GREEN","office_id":8891}]},"LS28":{"office_count":1,"total_reviews":703,"avg_rep_score":76.0,"avg_rating":4.88,"avg_reply_rate":71.1,"rag_breakdown":{"GREEN":1},"offices":[{"name":"Manning Stainton Pudsey","postcode":"LS28 7DT","lat":53.7974,"lng":-1.66344,"rep_score":76.0,"rating":4.88,"total_reviews":703,"reply_rate":71.05263157894737,"rag":"GREEN","office_id":8843}]},"LS26":{"office_count":1,"total_reviews":129,"avg_rep_score":74.0,"avg_rating":4.64,"avg_reply_rate":75.0,"rag_breakdown":{"GREEN":1},"offices":[{"name":"Manning Stainton Rothwell","postcode":"LS26 0BB","lat":53.748,"lng":-1.47712,"rep_score":74.0,"rating":4.64,"total_reviews":129,"reply_rate":75.0,"rag":"GREEN","office_id":244004}]},"WF1":{"office_count":1,"total_reviews":293,"avg_rep_score":75.0,"avg_rating":4.78,"avg_reply_rate":62.5,"rag_breakdown":{"GREEN":1},"offices":[{"name":"Manning Stainton Wakefield","postcode":"WF1 3AP","lat":53.6842,"lng":-1.49909,"rep_score":75.0,"rating":4.78,"total_reviews":293,"reply_rate":62.5,"rag":"GREEN","office_id":241638}]},"LS22":{"office_count":1,"total_reviews":150,"avg_rep_score":74.0,"avg_rating":4.94,"avg_reply_rate":100.0,"rag_breakdown":{"GREEN":1},"offices":[{"name":"Manning Stainton Wetherby","postcode":"LS22 6LN","lat":53.9286,"lng":-1.38648,"rep_score":74.0,"rating":4.94,"total_reviews":150,"reply_rate":100.0,"rag":"GREEN","office_id":241639}]},"LS12":{"office_count":1,"total_reviews":183,"avg_rep_score":80.0,"avg_rating":4.87,"avg_reply_rate":85.7,"rag_breakdown":{"GREEN":1},"offices":[{"name":"Manning Stainton Wortley","postcode":"LS12 4PQ","lat":53.7842,"lng":-1.59519,"rep_score":80.0,"rating":4.87,"total_reviews":183,"reply_rate":85.71428571428571,"rag":"GREEN","office_id":8740}]},"BB1":{"office_count":1,"total_reviews":312,"avg_rep_score":75.0,"avg_rating":4.81,"avg_reply_rate":100.0,"rag_breakdown":{"GREEN":1},"offices":[{"name":"Mortimers (BB1)","postcode":"BB1 7DT","lat":53.7503,"lng":-2.48511,"rep_score":75.0,"rating":4.81,"total_reviews":312,"reply_rate":100.0,"rag":"GREEN","office_id":225471}]},"BB5":{"office_count":1,"total_reviews":389,"avg_rep_score":76.0,"avg_rating":4.88,"avg_reply_rate":100.0,"rag_breakdown":{"GREEN":1},"offices":[{"name":"Mortimers (BB5)","postcode":"BB5 1HD","lat":53.7528,"lng":-2.36298,"rep_score":76.0,"rating":4.88,"total_reviews":389,"reply_rate":100.0,"rag":"GREEN","office_id":829}]},"BB7":{"office_count":1,"total_reviews":174,"avg_rep_score":80.0,"avg_rating":4.82,"avg_reply_rate":88.9,"rag_breakdown":{"GREEN":1},"offices":[{"name":"Mortimers (BB7)","postcode":"BB7 2BT","lat":53.8721,"lng":-2.392,"rep_score":80.0,"rating":4.82,"total_reviews":174,"reply_rate":88.88888888888889,"rag":"GREEN","office_id":841}]},"SK13":{"office_count":1,"total_reviews":1697,"avg_rep_score":76.0,"avg_rating":4.83,"avg_reply_rate":16.7,"rag_breakdown":{"RED":1},"offices":[{"name":"Ryder & Dutton Glossop","postcode":"SK13 8AL","lat":53.4431,"lng":-1.94954,"rep_score":76.0,"rating":4.83,"total_reviews":1697,"reply_rate":16.666666666666664,"rag":"RED","office_id":259714}]},"HD9":{"office_count":1,"total_reviews":184,"avg_rep_score":75.0,"avg_rating":4.96,"avg_reply_rate":80.0,"rag_breakdown":{"GREEN":1},"offices":[{"name":"Ryder & Dutton Holmfirth","postcode":"HD9 3AZ","lat":53.5706,"lng":-1.78706,"rep_score":75.0,"rating":4.96,"total_reviews":184,"reply_rate":80.0,"rag":"GREEN","office_id":241791}]},"HD3":{"office_count":1,"total_reviews":285,"avg_rep_score":75.0,"avg_rating":4.8,"avg_reply_rate":91.7,"rag_breakdown":{"GREEN":1},"offices":[{"name":"Ryder & Dutton Huddersfield","postcode":"HD3 3DU","lat":53.6531,"lng":-1.81648,"rep_score":75.0,"rating":4.8,"total_reviews":285,"reply_rate":91.66666666666666,"rag":"GREEN","office_id":241793}]},"BB4":{"office_count":1,"total_reviews":397,"avg_rep_score":76.0,"avg_rating":4.9,"avg_reply_rate":31.2,"rag_breakdown":{"AMBER":1},"offices":[{"name":"Ryder & Dutton Rawtenstall","postcode":"BB4 8EG","lat":53.7039,"lng":-2.28529,"rep_score":76.0,"rating":4.9,"total_reviews":397,"reply_rate":31.25,"rag":"AMBER","office_id":241794}]},"OL2":{"office_count":2,"total_reviews":2227,"avg_rep_score":75.0,"avg_rating":4.81,"avg_reply_rate":67.7,"rag_breakdown":{"GREEN":1,"AMBER":1},"offices":[{"name":"Ryder & Dutton Royton","postcode":"OL2 6QJ","lat":53.5665,"lng":-2.12232,"rep_score":74.0,"rating":4.89,"total_reviews":186,"reply_rate":100.0,"rag":"GREEN","office_id":241796},{"name":"Ryder and Dutton","postcode":"OL2 6HT","lat":53.5608,"lng":-2.1108,"rep_score":76.0,"rating":4.74,"total_reviews":2041,"reply_rate":35.44303797468354,"rag":"AMBER","office_id":253140}]},"HD7":{"office_count":1,"total_reviews":228,"avg_rep_score":75.0,"avg_rating":4.98,"avg_reply_rate":null,"rag_breakdown":{"RED":1},"offices":[{"name":"Ryder & Dutton Slaithwaite","postcode":"HD7 5AN","lat":53.6228,"lng":-1.8806,"rep_score":75.0,"rating":4.98,"total_reviews":228,"reply_rate":null,"rag":"RED","office_id":258632}]},"M24":{"office_count":1,"total_reviews":5010,"avg_rep_score":82.0,"avg_rating":4.78,"avg_reply_rate":39.7,"rag_breakdown":{"AMBER":1},"offices":[{"name":"Ryder and Dutton","postcode":"M24 1AB","lat":53.5485,"lng":-2.1988,"rep_score":82.0,"rating":4.78,"total_reviews":5010,"reply_rate":39.66942148760331,"rag":"AMBER","office_id":9071}]},"OL1":{"office_count":1,"total_reviews":661,"avg_rep_score":82.0,"avg_rating":4.8,"avg_reply_rate":69.1,"rag_breakdown":{"GREEN":1},"offices":[{"name":"Ryder and Dutton","postcode":"OL1 1HA","lat":53.5399,"lng":-2.11572,"rep_score":82.0,"rating":4.8,"total_reviews":661,"reply_rate":69.0909090909091,"rag":"GREEN","office_id":11417}]},"OL10":{"office_count":1,"total_reviews":2922,"avg_rep_score":82.0,"avg_rating":4.79,"avg_reply_rate":32.0,"rag_breakdown":{"AMBER":1},"offices":[{"name":"Ryder and Dutton","postcode":"OL10 4NL","lat":53.5937,"lng":-2.21998,"rep_score":82.0,"rating":4.79,"total_reviews":2922,"reply_rate":32.038834951456316,"rag":"AMBER","office_id":253137}]},"OL16":{"office_count":1,"total_reviews":2350,"avg_rep_score":80.0,"avg_rating":4.88,"avg_reply_rate":28.9,"rag_breakdown":{"AMBER":1},"offices":[{"name":"Ryder and Dutton","postcode":"OL16 1LD","lat":53.6196,"lng":-2.15425,"rep_score":80.0,"rating":4.88,"total_reviews":2350,"reply_rate":28.947368421052634,"rag":"AMBER","office_id":11452}]},"OL3":{"office_count":1,"total_reviews":403,"avg_rep_score":82.0,"avg_rating":4.84,"avg_reply_rate":78.6,"rag_breakdown":{"GREEN":1},"offices":[{"name":"Ryder and Dutton","postcode":"OL3 6AP","lat":53.5484,"lng":-2.00574,"rep_score":82.0,"rating":4.84,"total_reviews":403,"reply_rate":78.57142857142857,"rag":"GREEN","office_id":11464}]},"OL6":{"office_count":1,"total_reviews":3022,"avg_rep_score":82.0,"avg_rating":4.77,"avg_reply_rate":46.1,"rag_breakdown":{"AMBER":1},"offices":[{"name":"Ryder and Dutton","postcode":"OL6 6BX","lat":53.4889,"lng":-2.09174,"rep_score":82.0,"rating":4.77,"total_reviews":3022,"reply_rate":46.09375,"rag":"AMBER","office_id":253138}]},"OL9":{"office_count":1,"total_reviews":2228,"avg_rep_score":82.0,"avg_rating":4.76,"avg_reply_rate":51.2,"rag_breakdown":{"GREEN":1},"offices":[{"name":"Ryder and Dutton","postcode":"OL9 8DN","lat":53.5215,"lng":-2.16537,"rep_score":82.0,"rating":4.76,"total_reviews":2228,"reply_rate":51.21951219512195,"rag":"GREEN","office_id":11491}]},"HX1":{"office_count":1,"total_reviews":4049,"avg_rep_score":76.0,"avg_rating":4.78,"avg_reply_rate":27.6,"rag_breakdown":{"AMBER":1},"offices":[{"name":"Ryder and Dutton","postcode":"HX1 1HS","lat":53.7231,"lng":-1.86254,"rep_score":76.0,"rating":4.78,"total_reviews":4049,"reply_rate":27.611940298507463,"rag":"AMBER","office_id":253139}]}}}